     3.02           OBSERVATION DATA    M: MIXED            RINEX VERSION / TYPE
HEADER CHANGED BY EPN CB ON 2021-01-09                      COMMENT
TO BE CONFORM WITH THE INFORMATION IN                       COMMENT
ftp://epncb.oma.be/pub/station/log/wroc.log                 COMMENT
                                                            COMMENT
GR50 V4.31          IGG of WUELS        20210101 235953 UTC PGM / RUN BY / DATE
SNR is mapped to RINEX snr flag value [1-9]                 COMMENT
LX:     < 12dBHz -> 1; 12-17dBHz -> 2; 18-23dBHz -> 3       COMMENT
       24-29dBHz -> 4; 30-35dBHz -> 5; 36-41dBHz -> 6       COMMENT
       42-47dBHz -> 7; 48-53dBHz -> 8; >= 54dBHz -> 9       COMMENT
WROC                                                        MARKER NAME
12217M001                                                   MARKER NUMBER
Jan Sierny          IGG of WUELS                            OBSERVER / AGENCY
1830242             LEICA GR50          4.31/7.403          REC # / TYPE / VERS
725270              LEIAR25.R4      LEIT                    ANT # / TYPE
  3835751.6257  1177249.7445  4941605.0540                  APPROX POSITION XYZ
        0.0000        0.0000        0.0000                  ANTENNA: DELTA H/E/N
G   16 C1C L1C D1C S1C C2S L2S D2S S2S C2W L2W D2W S2W C5Q  SYS / # / OBS TYPES
       L5Q D5Q S5Q                                          SYS / # / OBS TYPES
R   12 C1C L1C D1C S1C C2P L2P D2P S2P C2C L2C D2C S2C      SYS / # / OBS TYPES
E   16 C1C L1C D1C S1C C5Q L5Q D5Q S5Q C7Q L7Q D7Q S7Q C8Q  SYS / # / OBS TYPES
       L8Q D8Q S8Q                                          SYS / # / OBS TYPES
C    8 C1I L1I D1I S1I C7I L7I D7I S7I                      SYS / # / OBS TYPES
J   12 C1C L1C D1C S1C C2S L2S D2S S2S C5Q L5Q D5Q S5Q      SYS / # / OBS TYPES
S    4 C1C L1C D1C S1C                                      SYS / # / OBS TYPES
DBHZ                                                        SIGNAL STRENGTH UNIT
    30.000                                                  INTERVAL
  2021    01    02    00    00    0.0000000     GPS         TIME OF FIRST OBS
  2021    01    02    23    59   30.0000000     GPS         TIME OF LAST OBS
     0                                                      RCV CLOCK OFFS APPL
G L2S -0.25000                                              SYS / PHASE SHIFT
G L2X -0.25000                                              SYS / PHASE SHIFT
R L2P  0.25000                                              SYS / PHASE SHIFT
E L8Q -0.25000                                              SYS / PHASE SHIFT
 24 R01  1 R02 -4 R03  5 R04  6 R05  1 R06 -4 R07  5 R08  6 GLONASS SLOT / FRQ #
    R09 -2 R10 -7 R11  0 R12 -1 R13 -2 R14 -7 R15  0 R16 -1 GLONASS SLOT / FRQ #
    R17  4 R18 -3 R19  3 R20  2 R21  4 R22 -3 R23  3 R24  2 GLONASS SLOT / FRQ #
 C1C  -71.940 C1P  -71.940 C2C  -71.940 C2P  -71.940        GLONASS COD/PHS/BIS
    18    18  1929     7                                    LEAP SECONDS
                                                            END OF HEADER
> 2021 01 02 00 00  0.0000000  0 44
G07  24974115.315   131239862.14707     -1027.267          43.550    24974115.271   102264836.91006      -800.471          39.600    24974115.059   102264825.91106      -800.471          36.650
G08  22382181.775   117619168.72408      2809.360          49.150    22382185.269    91651312.59807      2189.111          47.950    22382184.585    91651305.59708      2189.111          49.050    22382182.427    87832498.15208      2097.923          51.800
G10  21029879.139   110512774.16008      1503.666          53.250    21029882.080    86113865.17908      1171.688          51.750    21029882.278    86113852.16908      1171.688          53.150    21029879.383    82525773.05009      1122.916          54.700
G11  24805574.589   130354180.11306      3608.588          41.950                                                                    24805574.785   101574693.09906      2811.892          37.150
G13  25046802.738   131621854.20606     -1371.018          40.250                                                                    25046802.604   102562485.88905     -1068.321          34.350
G15  23700585.741   124547430.08507      -513.518          46.250    23700586.777    97049954.25207      -400.144          42.600    23700586.393    97049957.24807      -400.145          45.950
G16  21992170.831   115569642.33508     -2760.993          49.700                                                                    21992170.994    90054251.99607     -2151.424          44.550
G20  20895811.658   109808243.52508     -1051.260          48.350                                                                    20895811.854    85564875.35907      -819.165          46.800
G21  24356002.124   127991638.20407      2830.011          43.700                                                                    24356003.361    99733756.73706      2205.202          37.650
G23  20954718.190   110117794.85208      -785.548          48.000    20954719.417    85806091.51708      -612.117          52.400    20954719.282    85806084.50907      -612.116          47.950    20954721.892    82230847.17309      -586.595          54.400
G26  24032384.336   126291029.56107     -3658.395          44.550    24032388.075    98408604.27307     -2850.699          43.800    24032388.007    98408597.26907     -2850.699          44.550    24032386.168    94308239.71007     -2731.949          46.500
G27  20294279.439   106647182.64708       716.902          52.800    20294282.020    83101718.41108       558.625          53.050    20294281.647    83101715.41108       558.625          52.800    20294280.279    79639150.86209       535.375          55.900
G30  25365324.759   133295686.43606       316.687          41.800    25365327.181   103866777.05107       246.770          42.450    25365326.749   103866773.04706       246.772          38.300    25365325.677    99538983.73707       236.504          45.250
R02  21085642.020   112517043.85308     -1485.199          51.850    21085641.956    87513258.87607     -1155.153          45.400    21085641.976    87513265.89707     -1155.154          45.700
R03  20782434.975   111250006.39408      2576.992          51.100    20782432.911    86527777.72507      2004.327          47.200    20782433.038    86527792.74307      2004.328          47.150
R04  23634409.557   126561206.33007      4609.864          44.150    23634407.596    98436472.10606      3585.449          38.650    23634407.679    98436475.12106      3585.450          38.350
R09  21400895.142   114279580.16108     -1271.662          48.650    21400892.952    88884102.05507      -989.072          46.900    21400893.086    88884103.05707      -989.072          47.150
R10  22728680.564   121156657.28207      2185.180          42.700
R16  22997485.367   122848412.64807     -4058.041          42.700    22997485.003    95548761.61706     -3156.254          37.950    22997484.212    95548755.59906     -3156.255          39.050
R17  22510501.593   120458256.15308     -3259.987          48.900    22510500.103    93689731.13507     -2535.546          42.550    22510500.156    93689733.16407     -2535.545          44.150
R18  19624018.924   104754367.03908      -979.747          50.000    19624018.907    81475622.76808      -762.025          48.900    19624018.937    81475629.77308      -762.026          48.700
R19  20353448.172   108877242.58506      2092.186          39.250    20353445.715    84682300.50107      1627.256          45.600    20353446.027    84682301.49907      1627.256          46.700
E02  25045437.199   131614646.95648     -1781.081          51.000    25045440.237    98283666.14808     -1329.970          50.850    25045437.360   100847575.92808     -1364.695          51.550    25045438.580    99565622.78008     -1347.309          53.850
E04  26156860.830   137455238.90948      1045.021          49.300    26156863.405   102645167.10108       780.413          48.350    26156860.723   105322855.18208       800.754          48.700    26156861.849   103984007.38208       790.557          51.150
E09  25279403.396   132844162.41547      2946.590          47.600    25279407.123    99201821.29907      2200.467          43.350    25279404.737   101789685.47907      2257.792          45.650    25279405.694   100495753.63107      2229.080          47.050
E11  22680911.850   119189007.09348     -1778.351          50.550    22680911.626    89004786.71408     -1328.085          48.250    22680909.023    91326640.78808     -1362.733          49.300    22680910.201    90165716.99208     -1345.393          51.550
E19  27780816.538   145989194.31046     -1672.775          40.100    27780818.176   109017914.59706     -1249.058          37.050    27780815.408   111861852.22906     -1281.505          37.850    27780816.476   110439882.66306     -1265.375          40.250
E25  27539361.374   144720317.31347     -3254.087          44.850    27539365.686   108070385.25907     -2430.011          44.000    27539362.819   110889601.22407     -2493.264          44.350    27539363.941   109479991.47707     -2461.545          46.850
E30  24945924.812   131091712.84348       959.417          49.850    24945927.763    97893168.90608       716.501          48.550    24945925.019   100446896.50108       735.226          49.400    24945926.192    99170033.94608       725.848          51.650
E36  23269140.821   122280182.47848       547.554          52.550    23269144.673    91313150.96808       408.882          53.150    23269142.122    93695216.93809       419.535          54.600    23269143.231    92504184.19709       414.184          56.550
C02  40766643.934   212282611.45906        -3.143          37.700    40766636.333   164150364.56106        -2.748          40.250
C05  39534859.591   205868400.33807         2.813          42.750    39534854.422   159190465.28207         2.350          42.600
C06  40305096.611   209879220.51406      1480.090          38.100    40305090.803   162291907.03106      1144.565          41.150
C09  40577591.916   211298171.35207      2021.824          43.100    40577588.415   163389132.36206      1563.455          40.200
C13  39756242.177   207021195.29306      -937.596          40.050    39756243.073   160081927.31506      -724.994          41.800
C16  40169132.293   209171216.13606      1615.871          40.600    40169131.830   161744453.79006      1249.441          40.650
C20  23741931.980   123630472.58108      2605.074          51.800
C24  27094632.555   141088860.10807      1844.183          43.100
C26  24957756.492   129961580.43007      -428.158          45.850
C29  21584953.287   112398554.13508       731.807          51.850
C30  22919130.113   119345915.39408     -2116.985          52.400
J01  44343328.782   233025768.18707      -205.859          42.250    44343329.877   181578522.52206      -160.410          38.250    44343330.576   174012753.73206      -153.607          41.550
S23  38618458.169   202941351.80208         2.063          48.700
S36  38572852.422   202701758.42107         1.467          47.100
> 2021 01 02 00 00 30.0000000  0 44
G07  24980021.573   131270899.70507     -1042.844          44.350    24980021.507   102289022.01706      -812.602          38.800    24980021.296   102289011.01106      -812.603          36.600
G08  22366163.559   117534992.42208      2801.609          48.400    22366167.037    91585720.68308      2183.073          48.850    22366166.342    91585713.68108      2183.073          48.050    22366164.206    87769639.21808      2092.062          51.750
G10  21021342.635   110467914.55709      1486.051          54.100    21021345.556    86078909.66208      1157.962          51.550    21021345.755    86078896.65609      1157.962          54.150    21021342.865    82492274.01709      1109.775          54.900
G11  24784972.826   130245917.13507      3607.988          43.600                                                                    24784973.007   101490332.34705      2811.419          34.850
G13  25054677.254   131663235.11306     -1388.793          41.500                                                                    25054677.129   102594730.76405     -1082.177          35.000
G15  23703572.414   124563125.09907      -533.743          47.200    23703573.419    97062184.15607      -415.904          42.350    23703573.033    97062187.14407      -415.904          47.050
G16  22007969.567   115652665.33008     -2774.685          50.650                                                                    22007969.744    90118945.24507     -2162.091          44.700
G20  20901861.067   109840033.47308     -1068.887          49.200                                                                    20901861.268    85589646.75307      -832.899          46.850
G21  24339855.207   127906785.80807      2825.829          44.950                                                                    24339856.410    99667638.02306      2201.946          36.200
G23  20959256.130   110141641.92508      -804.897          49.350    20959257.359    85824673.66208      -627.192          51.800    20959257.222    85824666.64907      -627.193          47.750    20959259.834    82248655.06109      -601.083          54.500
G26  24053276.705   126400819.56607     -3661.784          44.750    24053280.462    98494154.90307     -2853.340          43.500    24053280.399    98494147.90007     -2853.341          44.700    24053278.545    94390225.70707     -2734.335          47.000
G27  20290229.324   106625899.10308       701.291          52.850    20290231.896    83085133.82608       546.460          53.050    20290231.522    83085130.82508       546.461          52.850    20290230.156    79623257.30309       523.657          55.950
G30  25363565.209   133286439.96307       299.171          42.900    25363567.656   103859572.00306       233.120          40.800    25363567.231   103859567.99206       233.118          38.600    25363566.168    99532078.91007       223.231          46.150
R02  21094061.933   112561974.02608     -1510.917          52.000    21094061.848    87548204.58707     -1175.156          45.600    21094061.864    87548211.59607     -1175.156          45.250
R03  20768051.674   111173011.53708      2554.942          50.500    20768049.614    86467892.85407      1987.179          47.400    20768049.742    86467907.86007      1987.179          47.750
R04  23608585.569   126422919.97807      4608.350          44.800    23608583.593    98328916.04206      3584.273          39.000    23608583.681    98328919.05306      3584.273          39.150
R09  21408109.297   114318103.29708     -1297.248          50.350    21408107.152    88914064.47807     -1008.971          46.750    21408107.270    88914065.46707     -1008.970          46.750
R10  22716444.621   121091432.61807      2162.213          44.200
R16  23020293.487   122970249.34707     -4065.401          43.300    23020293.142    95643523.48106     -3161.978          38.350    23020292.345    95643517.46006     -3161.978          39.600
R17  22528789.601   120556118.86908     -3265.061          50.000    22528788.122    93765846.57907     -2539.492          42.400    22528788.166    93765848.59007     -2539.490          42.200
R18  19629560.058   104783946.02108      -993.036          49.450    19629560.062    81498628.62708      -772.361          48.900    19629560.094    81498635.63508      -772.361          48.650
R19  20341739.547   108814609.39706      2082.220          38.900    20341737.080    84633585.80707      1619.505          45.700    20341737.394    84633586.81307      1619.505          46.800
E02  25055638.101   131668252.92848     -1793.493          51.450    25055641.146    98323696.55008     -1339.293          50.950    25055638.271   100888650.60308     -1374.213          51.400    25055639.485    99606175.32208     -1356.737          53.850
E04  26150931.525   137424080.31448      1031.393          50.150    26150934.101   102621899.34608       770.206          48.150    26150931.412   105298980.44308       790.369          48.650    26150932.538   103960436.13508       780.319          51.050
E09  25262589.671   132755805.59648      2943.036          48.300    25262593.396    99135840.53007      2197.712          43.650    25262591.016   101721983.46907      2255.062          45.600    25262591.969   100428912.24207      2226.382          47.250
E11  22691076.669   119242423.53348     -1783.150          51.300    22691076.453    89044675.60808     -1331.688          48.300    22691073.843    91367570.26208     -1366.363          49.100    22691075.021    90206126.17808     -1349.039          51.450
E19  27790396.570   146039537.81646     -1684.533          40.550    27790398.193   109055508.78906     -1258.062          37.150    27790395.441   111900427.15006     -1290.860          37.850    27790396.505   110477967.20806     -1274.322          40.300
E25  27557939.332   144817945.01647     -3255.387          45.750    27557943.651   108143289.03807     -2430.956          43.850    27557940.789   110964406.83907     -2494.353          44.500    27557941.905   109553846.18507     -2462.721          46.750
E30  24940485.906   131063131.23248       945.109          50.200    24940488.883    97871825.50108       705.786          48.550    24940486.116   100424996.31608       724.183          49.300    24940487.281    99148412.15408       714.944          51.600
E36  23266033.655   122263854.18348       540.325          53.300    23266037.493    91300957.76508       403.442          53.250    23266034.947    93682705.64909       414.006          54.550    23266036.059    92491831.95309       408.726          56.600
C02  40766660.493   212282697.68406        -3.160          38.400    40766652.902   164150431.22606        -2.682          40.000
C05  39534840.680   205868301.94707         3.092          43.200    39534835.503   159190389.22207         2.209          42.550
C06  40296578.779   209834866.08406      1475.834          37.350    40296572.977   162257609.37506      1141.267          41.350
C09  40565945.428   211237525.03807      2020.389          43.650    40565941.925   163342236.78206      1562.403          39.700
C13  39761639.266   207049299.27606      -936.913          41.100    39761640.153   160103659.07506      -724.434          41.500
C16  40159833.031   209122792.51006      1611.691          41.250    40159832.554   161707009.57206      1246.147          40.850
C20  23726953.599   123552476.24308      2593.859          52.400
C24  27084043.109   141033718.06507      1831.239          43.200
C26  24960267.983   129974660.92607      -444.441          47.600
C29  21580764.234   112376741.04308       721.601          52.200
C30  22931345.775   119409524.99508     -2124.560          53.000
J01  44344501.718   233031931.97007      -205.754          43.100    44344502.792   181583325.47106      -160.327          38.950    44344503.514   174017356.56106      -153.622          41.800
S23  38618444.156   202941278.07508         2.270          49.150
S36  38572841.534   202701701.96107         1.464          47.550
> 2021 01 02 00 01  0.0000000  0 44
G07  24986016.003   131302400.66407     -1057.480          44.950    24986015.908   102313568.24506      -824.009          39.450    24986015.701   102313557.23106      -824.010          38.750
G08  22350190.344   117451052.55308      2794.262          49.350    22350193.827    91520312.97508      2177.344          48.700    22350193.130    91520305.97508      2177.345          49.400    22350191.004    87706956.83708      2086.570          52.000
G10  21012906.279   110423581.27808      1469.167          53.550    21012909.185    86044364.26008      1144.806          52.150    21012909.384    86044351.25808      1144.806          53.600    21012906.504    82459168.02009      1097.084          54.950
G11  24764375.017   130137675.23507      3607.717          43.850                                                                    24764375.185   101405988.08805      2811.215          34.900
G13  25062653.875   131705152.33906     -1406.125          40.900                                                                    25062653.758   102627393.49905     -1095.687          32.700
G15  23706676.122   124579435.10607      -553.854          47.250    23706677.084    97074893.26607      -431.574          42.850    23706676.700    97074896.26007      -431.574          47.300
G16  22023846.504   115736099.27008     -2787.698          50.700                                                                    22023846.695    90183958.71307     -2172.233          45.100
G20  20908012.045   109872357.19108     -1086.159          49.250                                                                    20908012.256    85614834.07207      -846.357          46.650
G21  24323732.908   127822062.61007      2822.068          44.800                                                                    24323734.073    99601619.94206      2199.013          36.250
G23  20963904.678   110166070.20708      -823.754          49.600    20963905.900    85843708.68608      -641.885          51.900    20963905.765    85843701.67808      -641.886          48.400    20963908.377    82266896.96609      -615.178          54.400
G26  24074186.475   126510701.21007     -3664.092          44.100    24074190.237    98579776.96607     -2855.137          43.550    24074190.176    98579769.96707     -2855.137          44.050    24074188.317    94472280.19307     -2736.145          46.000
G27  20286268.671   106605085.67308       686.052          52.850    20286271.241    83068915.56708       534.586          53.600    20286270.864    83068912.56408       534.586          52.850    20286269.500    79607714.79709       512.299          56.000
G30  25361906.683   133277724.31407       281.941          43.350    25361909.139   103852780.58606       219.694          40.600    25361908.719   103852776.57506       219.695          38.550    25361907.664    99525570.45507       210.327          45.250
R02  21102626.523   112607676.14608     -1536.111          53.550    21102626.423    87583750.67607     -1194.752          45.200    21102626.433    87583757.67707     -1194.753          45.000
R03  20753792.859   111096683.14108      2533.307          51.400    20753790.800    86408526.33307      1970.349          47.600    20753790.935    86408541.35207      1970.350          47.700
R04  23582771.482   126284686.71407      4607.079          46.350    23582769.474    98221401.30906      3583.285          39.300    23582769.564    98221404.31406      3583.286          39.900
R09  21415467.343   114357394.85208     -1322.358          50.600    21415465.217    88944624.55907     -1028.501          46.600    21415465.331    88944625.56007     -1028.500          47.050
R10  22704337.867   121026896.47107      2139.951          44.900
R16  23043142.744   123092305.99307     -4071.981          43.100    23043142.413    95738456.42906     -3167.094          37.500    23043141.617    95738450.42906     -3167.091          38.650
R17  22547106.151   120654134.27708     -3269.571          49.650    22547104.684    93842080.75607     -2543.001          42.000    22547104.727    93842082.75907     -2543.002          42.850
R18  19635176.107   104813924.95108     -1005.863          51.050    19635176.124    81521945.56808      -782.338          49.050    19635176.158    81521952.56808      -782.340          48.400
R19  20330088.407   108752283.64906      2072.827          39.800    20330085.932    84585110.22607      1612.199          45.950    20330086.252    84585111.23307      1612.199          46.850
E02  25065909.720   131722230.57948     -1805.276          51.250    25065912.774    98364004.51608     -1348.106          50.950    25065909.902   100930010.08708     -1383.281          51.150    25065911.109    99647009.04608     -1365.682          53.900
E04  26145080.291   137393331.94148      1018.236          50.200    26145082.869   102598937.91108       760.347          48.450    26145080.176   105275420.00608       780.271          48.600    26145081.303   103937175.20408       770.279          51.350
E09  25245796.915   132667558.95948      2939.805          48.100    25245800.638    99069942.03707      2195.243          43.750    25245798.264   101654365.88607      2252.552          45.650    25245799.218   100362154.20807      2223.831          47.400
E11  22701268.611   119295982.47148     -1787.765          51.000    22701268.394    89084670.90808     -1334.924          48.250    22701265.782    91408608.92108     -1369.772          49.100    22701266.960    90246643.16008     -1352.368          51.550
E19  27800044.518   146090238.21946     -1695.857          41.000    27800046.134   109093369.49006     -1266.246          37.800    27800043.400   111939275.53206     -1299.379          37.500    27800044.464   110516321.76606     -1282.917          40.500
E25  27576524.319   144915609.74047     -3255.986          44.850    27576528.637   108216220.47907     -2431.286          42.700    27576525.779   111039240.84207     -2494.799          44.800    27576526.892   109627728.90807     -2463.074          46.400
E30  24935128.904   131034979.97248       931.223          50.200    24935131.909    97850803.44208       695.458          48.400    24935129.131   100403425.85308       713.620          49.550    24935130.278    99127115.89008       704.541          51.750
E36  23262967.596   122247741.88248       533.608          52.850    23262971.418    91288925.85508       398.480          53.300    23262968.881    93670359.86409       408.893          54.450    23262969.990    92479643.10309       403.701          56.650
C02  40766677.479   212282786.05506        -2.812          37.600    40766669.910   164150499.53106        -2.108          40.300
C05  39534822.499   205868207.23307         3.164          42.550    39534817.319   159190315.97507         2.583          42.550
C06  40288084.331   209790633.51906      1472.401          36.250    40288078.553   162223405.96506      1138.698          41.150
C09  40554307.815   211176924.86907      2019.215          42.900    40554304.304   163295376.86806      1561.537          39.700
C13  39767032.568   207077383.55906      -935.768          39.500    39767033.441   160125375.60506      -723.577          41.500
C16  40150558.452   209074497.45406      1607.819          40.050    40150557.959   161669664.79206      1243.301          40.950
C20  23712040.167   123474818.01008      2583.152          51.600
C24  27073528.429   140978965.70607      1818.833          43.750
C26  24962873.904   129988231.59707      -460.337          46.750
C29  21576634.083   112355234.54108       711.923          51.850
C30  22943605.475   119473364.01108     -2131.613          52.150
J01  44345675.416   233038099.79407      -205.298          42.850    44345676.460   181588131.57006      -159.973          39.000    44345677.208   174021962.42306      -153.451          41.550
S23  38618430.135   202941204.19208         2.512          49.200
S36  38572830.222   202701643.43007         2.397          47.250
> 2021 01 02 00 01 30.0000000  0 44
G07  24992098.662   131334364.96307     -1073.811          43.900    24992098.543   102338475.45606      -836.738          40.050    24992098.335   102338464.44406      -836.739          38.600
G08  22334262.631   117367352.03008      2785.447          49.050    22334266.104    91455091.82708      2170.480          48.850    22334265.397    91455084.82008      2170.479          48.950    22334263.276    87644453.19008      2080.003          51.600
G10  21004570.579   110379776.84308      1450.794          53.750    21004573.497    86010230.96308      1130.491          51.100    21004573.696    86010217.95508      1130.491          53.700    21004570.820    82426456.89809      1083.304          54.750
G11  24743781.660   130029456.72607      3606.351          42.850                                                                    24743781.824   101321662.05005      2810.145          33.400
G13  25070732.504   131747605.90306     -1424.791          41.100                                                                    25070732.357   102660474.24105     -1110.228          33.800
G15  23709897.151   124596361.62807      -575.187          47.050    23709898.071    97088082.79406      -448.197          41.800    23709897.684    97088085.78007      -448.197          47.250
G16  22039801.408   115819942.90108     -2802.146          50.500                                                                    22039801.608    90249291.42007     -2183.492          44.200
G20  20914264.626   109905214.83408     -1104.678          49.200                                                                    20914264.836    85640437.44707      -860.787          46.100
G21  24307635.547   127737470.55107      2817.046          45.600                                                                    24307636.673    99535704.07706      2195.101          37.250
G23  20968663.896   110191079.91708      -843.964          49.500    20968665.117    85863196.78208      -657.633          50.850    20968664.984    85863189.78707      -657.633          47.300    20968667.588    82285573.02409      -630.247          54.050
G26  24095113.525   126620673.40507     -3667.994          44.050    24095117.318    98665469.58206     -2858.177          41.900    24095117.255    98665462.57607     -2858.177          44.050    24095115.373    94554402.22307     -2738.952          46.000
G27  20282397.975   106584744.85208       669.581          52.900    20282400.555    83053065.57208       521.752          52.600    20282400.175    83053062.57008       521.752          52.700    20282398.806    79592525.17909       499.938          55.750
G30  25360349.480   133269540.93207       263.448          43.250    25360351.935   103846403.88906       205.283          39.550    25360351.516   103846399.89006       205.283          37.450    25360350.470    99519459.44307       196.572          44.150
R02  21111335.650   112654149.65208     -1562.411          52.850    21111335.518    87619896.73207     -1215.210          44.750    21111335.531    87619903.75107     -1215.210          44.850
R03  20739659.421   111021025.89908      2510.050          52.400    20739657.378    86349681.82607      1952.261          47.200    20739657.513    86349696.84407      1952.262          47.500
R04  23556968.275   126146511.77307      4604.091          45.650    23556966.238    98113931.95006      3580.961          39.000    23556966.325    98113934.95506      3580.961          38.900
R09  21422969.173   114397454.15608     -1348.664          49.800    21422967.059    88975781.78107     -1048.962          46.550    21422967.173    88975782.78107     -1048.962          47.000
R10  22692361.175   120963053.59807      2115.871          46.200
R16  23066032.586   123214579.23707     -4080.046          43.550    23066032.292    95833557.82106     -3173.371          37.150    23066031.482    95833551.80806     -3173.372          37.400
R17  22565451.250   120752302.70308     -3275.474          49.400    22565449.774    93918433.99506     -2547.589          41.600    22565449.821    93918436.00107     -2547.590          42.500
R18  19640867.312   104844305.06508     -1020.027          51.900    19640867.337    81545574.54708      -793.353          48.900    19640867.374    81545581.55008      -793.353          48.950
R19  20318495.254   108690268.12206      2061.396          40.400    20318492.772    84536875.94207      1603.307          45.650    20318493.095    84536876.94807      1603.308          46.700
E02  25076252.096   131776579.95948     -1818.459          50.650    25076255.170    98404590.03108     -1357.930          50.650    25076252.301   100971654.35508     -1393.369          51.650    25076253.504    99688123.93609     -1375.645          54.300
E04  26139307.590   137362996.13048      1003.561          49.700    26139310.181   102576284.51608       749.476          48.050    26139307.478   105252175.65308       769.059          49.050    26139308.611   103914226.33208       759.195          51.800
E09  25229025.787   132579425.90847      2935.236          47.800    25229029.514    99004128.34207      2192.000          43.600    25229027.148   101586835.32307      2249.026          45.850    25229028.099   100295482.07907      2220.465          47.850
E11  22711487.880   119349684.89748     -1792.900          50.800    22711487.670    89124773.32608     -1338.945          48.000    22711485.058    91449757.49208     -1373.913          49.400    22711486.235    90287268.65208     -1356.426          51.900
E19  27809760.427   146141295.64346     -1708.680          40.900    27809762.045   109131496.77006     -1275.788          38.200    27809759.319   111978397.42806     -1309.184          38.100    27809760.383   110554946.34206     -1292.434          41.600
E25  27595116.313   145013311.12147     -3257.779          44.800    27595120.650   108289179.27407     -2432.829          42.850    27595117.786   111114102.88607     -2496.355          45.100    27595118.893   109701639.32107     -2464.600          47.050
E30  24929854.250   131007261.32848       916.103          49.900    24929857.282    97830104.39307       684.066          47.950    24929854.520   100382186.83208       701.982          49.800    24929855.641    99106146.85908       692.982          51.950
E36  23259942.938   122231847.01348       525.536          52.550    23259946.760    91277056.26508       392.487          53.150    23259944.229    93658180.62909       402.714          54.850    23259945.335    92467618.69109       397.589          57.150
C02  40766695.023   212282876.85416        -3.500          37.300    40766687.574   164150570.49106        -2.937          40.700
C05  39534805.289   205868117.50007         2.307          42.700    39534800.111   159190246.56007         1.741          42.750
C06  40279613.648   209746524.63605      1467.972          35.800    40279607.910   162189298.17306      1134.789          41.350
C09  40542679.455   211116372.78507      2017.107          42.750    40542675.947   163248554.11106      1559.609          40.850
C13  39772422.364   207105449.54306      -935.576          40.500    39772423.241   160147077.95907      -723.551          42.050
C16  40141308.968   209026332.82306      1602.552          39.800    40141308.469   161632420.81706      1239.303          40.650
C20  23697192.327   123397501.41108      2570.906          51.750
C24  27063089.198   140924606.07007      1804.878          43.150
C26  24965574.442   130002293.10507      -477.383          47.500
C29  21572563.243   112334036.74308       700.834          51.900
C30  22955909.377   119537433.41108     -2140.018          52.100
J01  44346850.168   233044272.89307      -206.528          43.050    44346851.219   181592941.77806      -160.931          38.400    44346851.977   174026572.14106      -154.275          41.650
S23  38618416.101   202941130.52708         1.779          49.050
S36  38572819.055   202701584.88807         1.353          47.350
> 2021 01 02 00 02  0.0000000  0 45
G07  24998269.096   131366790.70607     -1088.821          42.900    24998268.967   102363742.26106      -848.428          41.200    24998268.763   102363731.25906      -848.428          39.950
G08  22318380.885   117283892.85208      2777.650          48.300    22318384.376    91390058.67807      2164.401          47.850    22318383.671    91390051.67508      2164.402          48.450    22318381.558    87582129.80108      2074.283          51.900
G10  20996335.635   110336502.17708      1433.358          53.150    20996338.539    85976510.46308      1116.903          51.800    20996338.739    85976497.45608      1116.903          53.150    20996335.882    82394141.45909      1070.417          54.700
G11  24723192.986   129921262.81007      3605.886          43.400                                                                    24723193.162   101237355.16505      2809.783          34.600
G13  25078912.959   131790594.36706     -1442.200          40.900                                                                    25078912.778   102693971.74206     -1123.792          36.900
G15  23713235.420   124613904.18707      -595.330          45.700    23713236.307    97101752.31006      -463.894          41.500    23713235.925    97101755.30607      -463.895          45.800
G16  22055833.737   115904193.39308     -2815.380          50.400                                                                    22055833.941    90314941.16907     -2193.802          44.350
G20  20920618.525   109938604.85508     -1122.205          49.000                                                                    20920618.732    85666455.65607      -874.444          46.550
G21  24291563.217   127653009.97007      2812.893          44.550                                                                    24291564.298    99469890.65706      2191.865          36.900
G23  20973533.453   110216669.68108      -863.026          49.100    20973534.636    85883136.87708      -672.487          51.750    20973534.501    85883129.88007      -672.486          47.800    20973537.109    82304682.31508      -644.350          53.900
G26  24116057.196   126730733.27707     -3670.232          43.250    24116060.978    98751230.52707     -2859.920          43.150    24116060.912    98751223.51307     -2859.921          42.950    24116059.022    94636589.83007     -2740.796          45.950
G27  20278617.331   106564877.49708       654.043          52.300    20278619.888    83037584.50808       509.643          52.950    20278619.508    83037581.50708       509.644          52.200    20278618.145    79577689.19809       488.464          55.650
G30  25358893.520   133261889.74207       246.047          42.400    25358895.953   103840441.93006       191.724          38.300    25358895.523   103840437.91505       191.725          35.550    25358894.500    99513745.93007       183.708          43.950
R02  21120188.762   112701391.51208     -1587.681          52.400    21120188.604    87656640.40507     -1234.865          44.950    21120188.619    87656647.42807     -1234.863          44.500
R03  20725651.971   110946043.08508      2487.914          52.400    20725649.956    86291361.87207      1935.043          47.350    20725650.089    86291376.88507      1935.043          47.650
R04  23531176.694   126008399.01807      4602.346          45.200    23531174.649    98006510.93606      3579.605          39.750    23531174.729    98006513.94006      3579.605          39.650
R09  21430614.334   114438278.93608     -1373.893          48.950    21430612.252    89007534.37607     -1068.586          46.750    21430612.365    89007535.37407     -1068.588          47.200
R10  22680515.145   120899907.11207      2092.905          44.900
R16  23088962.056   123337064.26907     -4086.822          42.650    23088961.797    95928823.94806     -3178.638          37.000    23088960.970    95928817.92706     -3178.638          37.850
R17  22583824.795   120850623.17908     -3280.179          48.950    22583823.329    93994905.43106     -2551.253          41.350    22583823.377    93994907.45107     -2551.253          43.050
R18  19646633.634   104875085.99308     -1033.066          51.450    19646633.672    81569515.23808      -803.496          48.950    19646633.709    81569522.24408      -803.496          48.950
R19  20306960.216   108628563.39606      2051.129          40.350    20306957.738    84488883.37607      1595.321          45.800    20306958.063    84488884.37707      1595.321          46.850
E02  25086664.858   131831299.53248     -1830.463          50.650    25086667.933    98445452.07508     -1366.825          50.600    25086665.075   101013582.36808     -1402.497          51.000    25086666.272    99729518.96409     -1384.659          54.050
E04  26133613.480   137333073.63948       990.258          49.650    26133616.060   102553939.86207       739.587          47.800    26133613.355   105229248.09508       758.843          48.550    26133614.492   103891590.22208       749.192          51.400
E09  25212276.538   132491408.23947      2931.668          47.150    25212280.248    98938400.92607      2189.275          43.650    25212277.881   101519393.25707      2246.411          45.750    25212278.827   100228897.33007      2217.929          47.850
E11  22721734.283   119403530.21148     -1797.427          50.550    22721734.053    89164982.52707     -1342.183          47.800    22721731.447    91491015.63108     -1377.211          49.050    22721732.620    90328002.32008     -1359.724          51.700
E19  27819543.931   146192708.51746     -1719.801          40.250    27819545.543   109169889.55606     -1284.279          38.200    27819542.821   112017791.78206     -1317.939          38.250    27819543.880   110593839.90906     -1301.099          41.650
E25  27613714.824   145111047.11147     -3258.823          44.550    27613719.129   108362163.97407     -2433.428          43.750    27613716.270   111188991.55907     -2496.955          43.600    27613717.358   109775576.00907     -2465.195          46.900
E30  24924661.975   130979975.91248       901.930          49.750    24924665.000    97809728.95307       673.642          47.750    24924662.275   100361279.86408       691.248          49.100    24924663.365    99085505.65208       682.425          51.650
E36  23256959.551   122216169.37548       518.665          51.850    23256963.360    91265348.98608       387.351          53.050    23256960.841    93646167.94209       397.509          54.350    23256961.938    92455758.70709       392.426          56.900
C02  40766713.281   212282972.00106        -4.034          37.250    40766705.847   164150644.09206        -2.833          40.150
C05  39534788.931   205868032.57107         2.536          42.700    39534783.731   159190180.95807         1.735          42.400
C06  40271166.762   209702539.76305      1463.426          35.450    40271161.060   162155286.30106      1131.905          40.300
C09  40531060.339   211055869.21107      2015.728          42.700    40531056.826   163201768.95506      1558.736          40.850
C13  39777808.593   207133497.22606      -934.936          40.050    39777809.459   160168766.23206      -722.898          41.650
C16  40132084.529   208978298.91506      1598.621          40.200    40132084.005   161595278.00906      1236.234          39.900
C20  23682410.424   123320528.28808      2559.751          51.600
C24  27052725.663   140870640.53207      1792.048          43.400
C26  24968369.309   130016844.66607      -493.455          46.850
C29  21568551.786   112313148.14608       690.800          51.900
C30  22968257.343   119601732.50408     -2147.376          51.750
J01  44348025.757   233050450.84607      -206.110          42.450    44348026.765   181597755.77606      -160.605          38.350    44348027.552   174031185.61606      -154.076          41.350
S23  38618402.054   202941057.37808         2.182          48.700
S26  39638883.603   208303734.03716       -72.331          41.350
S36  38572808.684   202701529.62007         1.695          46.900
> 2021 01 02 00 02 30.0000000  0 44
G07  25004526.642   131399674.32607     -1103.223          42.050    25004526.533   102389365.85406      -859.652          40.250    25004526.330   102389354.84006      -859.654          38.500
G08  22302544.989   117200674.84108      2770.322          49.500    22302548.500    91325213.49108      2158.692          49.900    22302547.790    91325206.48308      2158.691          49.650    22302545.688    87519986.49208      2068.821          51.800
G10  20988201.394   110293756.60708      1416.459          52.900    20988204.303    85943202.24308      1103.734          52.050    20988204.504    85943189.23708      1103.734          52.900    20988201.661    82362221.09009      1057.791          54.950
G11  24702608.813   129813092.66506      3605.645          41.700                                                                    24702609.003   101153066.82906      2809.597          38.000
G13  25087194.482   131834114.07306     -1459.372          40.900                                                                    25087194.252   102727883.23605     -1137.168          35.550
G15  23716690.455   124632060.42307      -615.067          45.350    23716691.323    97115900.02807      -479.274          42.100    23716690.941    97115903.02607      -479.274          45.200
G16  22071942.668   115988846.39108     -2828.003          49.900                                                                    22071942.875    90380904.55307     -2203.637          45.400
G20  20927073.172   109972524.26108     -1139.050          48.850                                                                    20927073.374    85692886.36407      -887.570          47.050
G21  24275515.671   127568679.66107      2809.283          44.900                                                                    24275516.692    99404178.76706      2189.054          37.700
G23  20978512.849   110242836.53808      -881.463          48.250    20978514.005    85903526.66108      -686.854          51.950    20978513.867    85903519.65508      -686.853          48.250    20978516.474    82324222.52209      -658.135          54.250
G26  24137016.771   126840876.57007     -3672.481          43.950    24137020.552    98837056.43407     -2861.676          43.700    24137020.488    98837049.42707     -2861.676          43.500    24137018.592    94718839.68407     -2742.348          45.400
G27  20274926.673   106545482.92708       638.953          52.850    20274929.222    83022471.86208       497.885          53.400    20274928.841    83022468.86008       497.885          52.700    20274927.476    79563206.24409       477.208          56.000
G30  25357538.502   133254769.09006       229.206          41.900    25357540.913   103834893.38606       178.604          39.650    25357540.473   103834889.38105       178.605          35.150    25357539.468    99508428.59107       170.966          44.100
R02  21129185.164   112749397.95408     -1612.460          52.400    21129184.983    87693978.74407     -1254.137          44.950    21129185.002    87693985.76407     -1254.136          45.000
R03  20711770.807   110871736.23808      2465.964          52.650    20711768.824    86233567.65807      1917.970          47.550    20711768.956    86233582.66407      1917.971          47.900
R04  23505397.079   125870350.38207      4600.976          46.200    23505395.015    97899139.80306      3578.538          38.950    23505395.091    97899142.81906      3578.537          38.700
R09  21438402.051   114479865.10908     -1398.420          49.250    21438400.006    89039879.18607     -1087.659          47.050    21438400.117    89039880.18207     -1087.659          47.750
R10  22668799.618   120837456.84107      2070.513          44.300
R16  23111930.051   123459755.24607     -4092.380          42.450    23111929.824    96024250.26706     -3182.962          37.000    23111928.986    96024244.25006     -3182.961          37.550
R17  22602226.256   120949093.13408     -3284.360          48.100    22602224.792    94071493.16806     -2554.505          41.800    22602224.841    94071495.18807     -2554.504          42.300
R18  19652474.625   104906265.58208     -1045.550          51.200    19652474.664    81593766.02508      -813.205          48.900    19652474.701    81593773.03508      -813.205          48.800
R19  20295483.207   108567169.18106      2041.524          39.350    20295480.727    84441132.33407      1587.852          46.100    20295481.058    84441133.33707      1587.851          47.150
E02  25097147.492   131886386.16748     -1842.036          50.300    25097150.583    98486588.18508     -1375.404          50.750    25097147.733   101055791.59808     -1411.320          51.000    25097148.923    99771191.63308     -1393.322          53.850
E04  26127997.902   137303563.67948       977.103          49.650    26128000.477   102531903.22407       729.840          47.950    26127997.773   105206636.59508       748.779          48.600    26127998.915   103869266.15208       739.325          51.250
E09  25195549.357   132403506.21448      2928.407          48.250    25195553.079    98872759.76807      2187.034          43.800    25195550.716   101452039.74407      2243.990          45.750    25195551.658   100162400.00307      2215.454          47.750
E11  22732007.514   119457516.29248     -1801.756          50.250    22732007.287    89205296.79708     -1345.352          48.300    22732004.684    91532381.57108     -1380.363          49.000    22732005.853    90368842.42808     -1362.883          51.650
E19  27829394.519   146244473.78946     -1730.895          40.850    27829396.139   109208545.45606     -1292.557          38.500    27829393.415   112057456.08606     -1326.352          38.500    27829394.469   110633000.01806     -1309.488          41.500
E25  27632319.280   145208814.09547     -3258.924          44.550    27632323.580   108435171.78707     -2433.541          43.350    27632320.702   111263903.92307     -2497.112          43.650    27632321.794   109849536.09707     -2465.292          46.350
E30  24919552.023   130953122.89148       888.302          49.800    24919555.037    97789676.34607       663.383          47.900    24919552.347   100340704.15008       680.702          49.150    24919553.424    99065191.48908       672.069          51.550
E36  23254017.200   122200707.25148       512.179          52.050    23254021.014    91253802.59608       382.519          53.250    23254018.503    93634320.34209       392.514          54.300    23254019.593    92444061.71109       387.514          56.750
C02  40766731.874   212283068.76806        -2.844          37.900    40766724.442   164150718.93406        -2.025          39.850
C05  39534773.235   205867950.79007         3.069          42.950    39534768.034   159190117.71007         2.414          42.250
C06  40262743.440   209658677.51305      1460.507          34.850    40262737.767   162121369.23906      1129.408          40.950
C09  40519450.354   210995413.02607      2014.511          43.100    40519446.849   163155020.40306      1558.000          40.650
C13  39783190.980   207161524.68306      -933.629          40.800    39783191.854   160190438.80806      -721.743          41.550
C16  40122884.969   208930394.41506      1595.277          40.500    40122884.427   161558235.22506      1233.460          39.850
C20  23667694.531   123243898.99508      2549.025          51.850
C24  27042437.934   140817069.06407      1779.406          43.300
C26  24971257.874   130031883.74607      -508.988          47.800
C29  21564599.535   112292567.74708       681.232          52.550
C30  22980648.968   119666259.14708     -2154.319          52.150
J01  44349201.987   233056631.88907      -205.768          42.600    44349202.996   181602572.18806      -160.339          38.850    44349203.793   174035801.31406      -153.478          41.800
S23  38618387.868   202940983.39208         2.867          48.800
S36  38572797.347   202701470.03607         2.398          47.100
> 2021 01 02 00 03  0.0000000  0 44
G07  25010871.242   131433015.22907     -1118.484          44.400    25010871.168   102415345.71406      -871.547          40.750    25010870.972   102415334.70506      -871.547          39.050
G08  22286755.543   117117700.92907      2762.204          47.550    22286759.076    91260558.51608      2152.369          48.800    22286758.372    91260551.50307      2152.369          47.500    22286756.248    87458025.47108      2062.588          52.100
G10  20980168.199   110251542.01008      1398.654          53.400    20980171.116    85910307.75808      1089.861          52.050    20980171.318    85910294.75308      1089.861          53.600    20980168.488    82330697.21609      1044.431          54.850
G11  24682029.465   129704947.85607      3604.851          43.350                                                                    24682029.680   101068798.22305      2808.977          35.800
G13  25095577.074   131878164.60707     -1476.755          42.250                                                                    25095576.830   102762208.28605     -1150.721          35.500
G15  23720262.302   124650830.65207      -635.460          46.500    23720263.154    97130526.20206      -495.162          41.950    23720262.771    97130529.20207      -495.161          46.800
G16  22088127.927   116073900.45208     -2841.400          50.000                                                                    22088128.146    90447180.43707     -2214.078          43.850
G20  20933628.421   110006972.37008     -1156.697          49.650                                                                    20933628.617    85719729.05807      -901.322          45.650
G21  24259493.170   127484480.96307      2804.805          45.550                                                                    24259494.121    99338569.44406      2185.564          38.500
G23  20983601.980   110269580.07408      -900.539          48.450    20983603.120    85924365.78608      -701.718          51.600    20983602.979    85924358.77407      -701.718          47.700    20983605.588    82344193.35209      -672.582          54.000
G26  24157991.863   126951101.40107     -3675.085          44.200    24157995.657    98922945.92507     -2863.701          42.850    24157995.598    98922938.91807     -2863.701          43.650    24157993.675    94801150.42707     -2744.388          45.850
G27  20271326.334   106526562.95408       623.084          52.850    20271328.873    83007729.02008       485.519          53.300    20271328.493    83007726.02008       485.519          52.950    20271327.127    79549077.68909       465.300          55.900
G30  25356284.613   133248179.84407       211.268          43.300    25356287.031   103829758.89106       164.622          40.500    25356286.578   103829754.89606       164.623          36.250    25356285.586    99503508.04007       157.642          42.800
R02  21138324.515   112798167.24008     -1637.852          51.300    21138324.315    87731910.40707     -1273.886          44.850    21138324.339    87731917.42507     -1273.885          44.400
R03  20698016.641   110798109.29008      2443.310          52.350    20698014.667    86176302.27807      1900.351          47.350    20698014.798    86176317.28807      1900.350          47.700
R04  23479630.392   125732370.89807      4598.527          45.050    23479628.310    97791822.43506      3576.633          39.700    23479628.386    97791825.45706      3576.632          39.700
R09  21446332.114   114522211.24008     -1423.752          49.400    21446330.121    89072815.03907     -1107.366          46.900    21446330.228    89072816.02707     -1107.368          47.350
R10  22657215.506   120775707.29707      2046.987          44.350
R16  23134935.909   123582648.45707     -4099.371          42.350    23134935.716    96119833.87706     -3188.399          37.050    23134934.865    96119827.85706     -3188.401          37.550
R17  22620655.650   121047712.52808     -3289.255          48.950    22620654.194    94148197.12906     -2558.309          41.100    22620654.240    94148199.14406     -2558.309          40.900
R18  19658390.491   104937844.79308     -1058.843          50.950    19658390.524    81618327.61808      -823.545          49.000    19658390.563    81618334.63008      -823.545          48.400
R19  20284064.637   108506087.50506      2030.975          39.100    20284062.167    84393624.35407      1579.647          46.000    20284062.497    84393625.36007      1579.647          46.950
E02  25107699.850   131941839.21848     -1854.105          51.300    25107702.958    98527997.91608     -1384.634          50.750    25107700.112   101098281.57808     -1420.691          51.150    25107701.301    99813141.48908     -1402.670          53.650
E04  26122461.135   137274467.94948       963.397          50.200    26122463.694   102510175.93507       719.304          47.750    26122460.990   105184342.49708       738.119          48.950    26122462.144   103847255.45908       728.715          51.100
E09  25178844.689   132315722.57848      2924.504          48.750    25178848.411    98807207.04207      2183.890          43.750    25178846.052   101384776.95807      2240.811          46.050    25178846.997   100095992.24607      2212.297          47.550
E11  22742307.573   119511643.47748     -1806.000          50.150    22742307.341    89245716.46008     -1348.707          48.300    22742304.745    91573855.66108     -1383.891          49.250    22742305.904    90409789.30308     -1366.291          51.500
E19  27839312.074   146296590.89946     -1742.953          41.550    27839313.694   109247464.07906     -1301.527          38.750    27839310.981   112097389.97806     -1335.362          38.950    27839312.025   110672426.27306     -1318.519          41.700
E25  27650929.466   145306611.12847     -3259.971          44.650    27650933.777   108508202.01307     -2434.449          42.850    27650930.876   111338839.28507     -2497.993          44.300    27650931.975   109923518.89007     -2466.184          46.200
E30  24914524.658   130926703.86348       873.786          50.250    24914527.638    97769947.83907       652.498          47.800    24914524.980   100320460.98108       669.593          49.300    24914526.058    99045205.65508       661.016          51.250
E36  23251116.009   122185461.43048       504.951          52.500    23251119.834    91242417.72408       377.081          53.200    23251117.330    93622638.47309       386.941          54.500    23251118.415    92432528.34309       381.998          56.600
C02  40766750.973   212283168.95716        -2.970          37.850    40766743.421   164150795.67006        -2.199          40.000
C05  39534758.282   205867872.89007         2.810          42.800    39534753.079   159190057.46907         2.351          42.600
C06  40254343.889   209614939.09105      1456.274          34.700    40254338.240   162087547.94606      1126.057          41.700
C09  40507849.694   210935005.43107      2012.954          42.950    40507846.182   163108309.44506      1556.560          40.650
C13  39788569.631   207189532.82406      -932.660          40.700    39788570.503   160212096.48407      -721.306          42.100
C16  40113710.503   208882620.59406      1590.600          40.400    40113709.958   161521293.47606      1230.048          40.350
C20  23653045.221   123167616.39408      2537.291          51.650
C24  27032226.373   140763894.04407      1766.436          42.800
C26  24974240.090   130047410.43407      -525.288          46.600
C29  21560706.795   112272297.00808       670.900          51.900
C30  22993084.335   119731013.61708     -2161.844          51.650
J01  44350378.887   233062816.59707      -205.697          43.050    44350379.882   181607391.43906      -160.284          38.850    44350380.700   174040419.78506      -153.761          41.600
S23  38618373.681   202940908.84308         2.970          48.950
S36  38572786.676   202701414.25707         2.485          47.400
> 2021 01 02 00 03 30.0000000  0 44
G07  25017302.600   131466812.22907     -1134.223          43.850    25017302.551   102441681.02206      -883.812          39.550    25017302.358   102441670.00506      -883.812          37.250
G08  22271013.092   117034973.79708      2753.353          49.200    22271016.666    91196095.78508      2145.469          49.000    22271015.967    91196088.78208      2145.469          49.150    22271013.844    87396248.71108      2056.072          52.100
G10  20972236.361   110209860.06708      1380.365          53.750    20972239.281    85877828.35408      1075.611          51.400    20972239.483    85877815.34908      1075.611          53.700    20972236.661    82299571.12009      1030.817          54.950
G11  24661455.355   129596830.49506      3603.493          41.500                                                                    24661455.600   100984550.98005      2807.919          35.300
G13  25104060.472   131922745.13207     -1494.786          42.200                                                                    25104060.197   102796946.38105     -1164.772          34.850
G15  23723951.132   124670215.67307      -656.450          46.350    23723951.974    97145631.44006      -511.519          41.250    23723951.587    97145634.43607      -511.520          46.650
G16  22104389.084   116159353.40908     -2855.234          49.550                                                                    22104389.321    90513767.14507     -2224.860          44.250
G20  20940284.122   110041948.39208     -1174.699          49.300                                                                    20940284.309    85746983.11907      -915.348          45.850
G21  24243496.004   127400415.29207      2799.806          45.650                                                                    24243496.880    99273063.76106      2181.669          37.250
G23  20988800.726   110296899.71408      -920.320          48.400    20988801.866    85945653.81408      -717.132          50.850    20988801.725    85945646.81207      -717.132          47.650    20988804.333    82364594.38809      -687.261          54.250
G26  24178982.132   127061405.94607     -3678.364          43.600    24178985.942    99008897.49007     -2866.259          43.150    24178985.886    99008890.48107     -2866.259          43.050    24178983.947    94883520.67507     -2746.677          45.250
G27  20267816.635   106508119.30008       606.770          52.050    20267819.172    82993357.33908       472.809          52.800    20267818.792    82993354.33808       472.809          52.000    20267817.424    79535304.82309       453.142          56.100
G30  25355131.954   133242122.66407       192.784          42.700    25355134.372   103825039.02406       150.221          39.400    25355133.906   103825035.01806       150.221          36.800    25355132.897    99498984.82107       144.018          44.400
R02  21147606.612   112847698.31308     -1663.794          52.400    21147606.393    87770434.58807     -1294.062          44.950    21147606.417    87770441.60207     -1294.062          44.950
R03  20684390.336   110725166.64508      2420.012          53.200    20684388.361    86119569.11607      1882.231          47.300    20684388.492    86119584.12807      1882.231          47.500
R04  23453877.459   125594465.02707      4595.655          44.650    23453875.376    97684562.32406      3574.398          39.550    23453875.448    97684565.33206      3574.397          39.900
R09  21454404.137   114565315.58908     -1449.548          50.450    21454402.169    89106340.65407     -1127.425          46.800    21454402.275    89106341.65207     -1127.425          47.000
R10  22645763.352   120714661.78507      2022.965          43.050
R16  23157978.956   123705740.33907     -4106.383          42.800    23157978.787    96215572.01306     -3193.855          36.650    23157977.937    96215565.99106     -3193.855          36.800
R17  22639113.013   121146481.49608     -3294.827          48.400    22639111.561    94225017.41406     -2562.644          41.200    22639111.607    94225019.41807     -2562.644          42.100
R18  19664381.216   104969823.66008     -1072.728          51.600    19664381.235    81643200.07108      -834.342          48.900    19664381.277    81643207.07608      -834.343          48.900
R19  20272704.785   108445319.94606      2020.304          39.700    20272702.313    84346360.70807      1571.349          45.900    20272702.645    84346361.70907      1571.348          47.250
E02  25118321.810   131997657.97448     -1866.810          50.900    25118324.942    98569680.72008     -1394.013          50.800    25118322.095   101141051.77108     -1430.417          51.200    25118323.291    99855367.99008     -1412.233          53.700
E04  26117003.529   137245788.09648       948.961          50.350    26117006.072   102488759.17408       708.657          48.050    26117003.377   105162367.03908       727.140          49.050    26117004.540   103825559.34908       717.904          51.250
E09  25162163.089   132228060.09848      2920.043          48.300    25162166.809    98741744.77307      2180.475          44.100    25162164.453   101317606.98107      2237.343          45.900    25162165.409   100029676.11607      2208.946          47.650
E11  22752634.546   119565912.04648     -1811.362          49.700    22752634.323    89286241.67808     -1352.632          48.550    22752631.733    91615438.06108     -1387.944          49.100    22752632.881    90450843.11008     -1370.233          51.550
E19  27849296.443   146349059.12446     -1755.038          41.400    27849298.051   109286644.91206     -1310.482          38.800    27849295.349   112137592.91806     -1344.744          38.600    27849296.386   110712118.15806     -1327.580          41.550
E25  27669545.100   145404436.99747     -3261.634          44.350    27669549.424   108581253.82207     -2435.532          43.400    27669546.500   111413796.78007     -2499.052          43.800    27669547.603   109997523.53907     -2467.256          46.100
E30  24909580.172   130900720.33448       858.719          49.900    24909583.115    97750544.54108       641.301          48.050    24909580.477   100300551.51308       658.029          49.450    24909581.564    99025549.26708       649.698          51.400
E36  23248256.115   122170432.63148       497.219          52.750    23248259.949    91231194.91908       371.362          53.550    23248257.449    93611122.90109       381.036          54.400    23248258.531    92421159.15409       376.188          56.650
C02  40766770.633   212283271.19906        -3.309          37.650    40766763.036   164150874.73006        -2.521          40.100
C05  39534744.198   205867799.56507         2.133          42.850    39534738.994   159190000.77507         1.711          42.600
C06  40245968.324   209571325.55005      1451.825          35.900    40245962.707   162053823.20906      1122.498          41.050
C09  40496258.648   210874647.71707      2011.020          43.350    40496255.142   163061637.01206      1555.277          40.300
C13  39793944.690   207217522.12506      -932.839          40.900    39793945.573   160233739.56007      -721.207          42.350
C16  40104561.313   208834978.54906      1586.000          41.650    40104560.764   161484453.66106      1226.272          40.300
C20  23638463.012   123091683.17608      2525.240          52.100
C24  27022091.346   140711117.83807      1752.401          43.200
C26  24977315.692   130063424.61407      -541.980          46.750
C29  21556873.798   112252337.30908       660.029          52.000
C30  23005563.494   119795996.10308     -2169.942          51.800
J01  44351556.610   233069005.52907      -206.522          43.150    44351557.616   181612213.98106      -160.926          38.000    44351558.440   174045041.37406      -154.074          41.750
S23  38618359.461   202940834.02208         2.396          48.900
S36  38572776.869   202701362.48707         1.664          47.400
> 2021 01 02 00 04  0.0000000  0 44
G07  25023820.216   131501062.57107     -1148.916          44.050    25023820.183   102468369.59906      -895.259          39.350    25023819.988   102468358.59306      -895.259          37.100
G08  22255317.576   116952493.57008      2745.448          48.950    22255321.171    91131825.51908      2139.311          49.050    22255320.483    91131818.51108      2139.310          48.850    22255318.315    87334656.30408      2050.212          52.350
G10  20964405.887   110168710.60908      1363.040          53.650    20964408.824    85845763.86708      1062.110          51.900    20964409.023    85845750.86008      1062.110          53.850    20964406.199    82268842.61009      1017.868          55.000
G11  24640886.377   129488740.45706      3602.887          41.350                                                                    24640886.676   100900325.08406      2807.447          38.800
G13  25112644.191   131967852.89306     -1512.319          41.500                                                                    25112643.879   102832095.31805     -1178.428          33.900
G15  23727756.570   124690213.45207      -676.390          45.450    23727757.405    97161214.14706      -527.058          41.750    23727757.012    97161217.13707      -527.058          45.700
G16  22120725.442   116245201.64608     -2867.878          49.900                                                                    22120725.702    90580661.87707     -2234.711          43.450
G20  20947039.782   110077449.66108     -1191.754          49.150                                                                    20947039.965    85774646.45407      -928.639          45.750
G21  24227524.026   127316482.04507      2795.782          46.550                                                                    24227524.831    99207661.28805      2178.531          34.850
G23  20994108.635   110324792.88408      -939.086          48.300    20994109.798    85967388.75108      -731.756          51.700    20994109.658    85967381.74907      -731.755          47.750    20994112.257    82385423.66509      -701.227          54.150
G26  24199986.829   127171786.29307     -3680.406          43.600    24199990.669    99094908.15107     -2867.848          42.800    24199990.617    99094901.14507     -2867.848          43.300    24199988.641    94965947.52407     -2748.221          45.250
G27  20264397.545   106490151.72608       591.314          52.150    20264400.105    82979356.62208       460.764          53.200    20264399.725    82979353.62008       460.764          52.200    20264398.352    79521887.43109       441.540          56.150
G30  25354080.356   133236596.32007       175.702          43.200    25354082.771   103820732.75406       136.911          39.600    25354082.305   103820728.74605       136.912          35.750    25354081.274    99494857.94007       131.154          44.650
R02  21157030.787   112897987.42508     -1688.635          52.850    21157030.562    87809548.32807     -1313.382          45.200    21157030.579    87809555.33407     -1313.384          45.300
R03  20670892.133   110652909.72508      2397.308          53.650    20670890.136    86063369.31407      1864.574          47.300    20670890.266    86063384.32707      1864.574          47.500
R04  23428138.779   125456635.59607      4593.241          46.200    23428136.696    97577361.66406      3572.521          39.900    23428136.771    97577364.67306      3572.521          39.850
R09  21462617.536   114609174.56508     -1474.287          50.650    21462615.584    89140453.15807     -1146.668          46.800    21462615.685    89140454.16007     -1146.666          46.800
R10  22634443.399   120654321.40007      1999.770          44.550
R16  23181058.126   123829025.28907     -4112.505          43.500    23181057.966    96311460.31406     -3198.613          36.250    23181057.125    96311454.30906     -3198.612          36.150
R17  22657597.866   121245397.72107     -3299.393          47.600    22657596.397    94301952.26006     -2566.196          40.800    22657596.446    94301954.27106     -2566.197          41.700
R18  19670446.584   105002200.87308     -1085.622          51.400    19670446.600    81668382.31908      -844.373          49.050    19670446.646    81668389.32908      -844.373          49.100
R19  20261403.720   108384866.90406      2009.962          39.950    20261401.252    84299341.67507      1563.303          45.900    20261401.587    84299342.68407      1563.303          47.000
E02  25129012.882   132053839.76048     -1878.460          50.750    25129016.045    98611634.57008     -1402.730          50.850    25129013.197   101184100.07408     -1439.372          50.950    25129014.400    99897869.06608     -1421.066          53.700
E04  26111625.021   137217523.72448       935.518          50.850    26111627.554   102467652.63008       698.623          48.200    26111624.868   105140709.89508       716.828          49.000    26111626.039   103804177.50608       707.708          51.300
E09  25145504.716   132140519.50448      2916.281          48.650    25145508.446    98676373.47107      2177.694          44.250    25145506.081   101250530.33807      2234.476          45.850    25145507.059    99963452.14607      2206.117          47.750
E11  22762988.156   119620320.45248     -1815.925          49.000    22762987.969    89326871.26608     -1355.923          48.600    22762985.379    91657127.55508     -1391.291          48.850    22762986.520    90492002.65208     -1373.628          51.450
E19  27859347.161   146401875.87646     -1766.214          41.100    27859348.766   109326085.97106     -1318.803          38.600    27859346.063   112178062.85006     -1353.304          38.150    27859347.097   110752073.65706     -1336.004          41.250
E25  27688165.686   145502288.66347     -3261.726          44.800    27688170.058   108654324.81507     -2435.817          43.100    27688167.109   111488773.96307     -2499.360          43.000    27688168.212   110071547.63107     -2467.570          45.900
E30  24904718.488   130875171.85248       844.526          50.250    24904721.408    97731466.09408       630.760          48.000    24904718.780   100280975.36908       647.173          49.350    24904719.875    99006221.97508       638.963          51.350
E36  23245437.314   122155619.61148       490.356          52.800    23245441.162    91220133.20708       366.238          53.550    23245438.655    93599772.61909       375.804          54.200    23245439.740    92409953.15609       371.010          56.650
C02  40766790.640   212283375.34706        -3.142          37.650    40766783.044   164150955.23606        -2.542          40.050
C05  39534730.798   205867729.66007         2.434          42.850    39534725.604   159189946.68707         1.872          42.100
C06  40237616.636   209527836.05906      1447.429          36.700    40237611.061   162020194.32106      1119.480          40.700
C09  40484677.080   210814339.25307      2009.784          43.250    40484673.581   163015002.64106      1554.244          39.950
C13  39799315.942   207245491.50106      -931.783          41.050    39799316.848   160255367.20507      -720.530          42.050
C16  40095437.374   208787467.57207      1581.617          42.650    40095436.838   161447715.10206      1223.002          40.050
C20  23623948.073   123016100.16308      2513.801          51.800
C24  27012032.972   140658740.75607      1739.645          42.950
C26  24980484.286   130079924.23407      -557.689          45.450
C29  21553100.427   112232688.13208       650.041          52.050
C30  23018086.168   119861204.95108     -2177.200          51.700
J01  44352734.877   233075197.25707      -206.165          43.000    44352735.903   181617038.70606      -160.648          38.950    44352736.728   174049665.03106      -154.105          41.700
S23  38618345.290   202940759.14208         2.800          48.750
S36  38572765.891   202701305.29407         2.352          46.900
> 2021 01 02 00 04 30.0000000  0 44
G07  25030423.740   131535764.29507     -1164.296          44.250    25030423.728   102495409.88206      -907.247          39.100    25030423.531   102495398.88706      -907.244          37.900
G08  22239669.514   116870262.36808      2736.726          48.050    22239673.144    91067749.21608      2132.514          48.900    22239672.465    91067742.21708      2132.515          48.000    22239670.299    87273249.88208      2043.636          52.200
G10  20956676.890   110128094.50508      1344.759          53.350    20956679.820    85814114.97708      1047.865          52.000    20956680.020    85814101.97208      1047.865          53.400    20956677.194    82238512.42209      1004.249          54.800
G11  24620322.805   129380678.72406      3601.557          39.950                                                                    24620323.177   100816121.20506      2806.412          37.800
G13  25121327.873   132013485.86607     -1530.250          42.400                                                                    25121327.546   102867653.48005     -1192.400          35.300
G15  23731678.476   124710823.29007      -697.290          45.400    23731679.301    97177273.77706      -543.343          41.250    23731678.905    97177276.76907      -543.343          45.850
G16  22137136.478   116331442.33508     -2881.353          49.250                                                                    22137136.762    90647862.41207     -2245.210          44.000
G20  20953895.091   110113474.58908     -1209.660          48.800                                                                    20953895.270    85802717.83407      -942.591          46.300
G21  24211577.294   127232681.32007      2790.991          45.800                                                                    24211578.022    99142362.05006      2174.801          36.850
G23  20999525.389   110353258.20408      -958.417          48.050    20999526.558    85989569.53508      -746.819          51.500    20999526.417    85989562.52907      -746.818          47.750    20999529.015    82406680.24508      -715.768          53.750
G26  24221005.387   127282239.73907     -3683.034          43.000    24221009.235    99180975.78307     -2869.895          42.050    24221009.186    99180968.77907     -2869.895          43.650    24221007.179    95048429.02607     -2750.386          44.750
G27  20261069.183   106472661.10808       575.027          51.700    20261071.761    82965727.56208       448.073          53.050    20261071.382    82965724.56208       448.073          51.650    20261070.011    79508826.24509       429.356          55.850
G30  25353129.726   133231600.62906       157.712          41.900    25353132.128   103816840.00106       122.890          40.150    25353131.664   103816835.98706       122.888          36.200    25353130.621    99491127.37507       117.558          44.400
R02  21166596.404   112949031.49808     -1714.217          51.650    21166596.164    87849249.30007     -1333.280          45.350    21166596.179    87849256.30707     -1333.283          45.000
R03  20657522.735   110581342.17608      2373.911          52.300    20657520.715    86007705.67007      1846.376          47.550    20657520.843    86007720.67807      1846.376          47.950
R04  23402415.058   125318886.46707      4590.168          45.750    23402412.976    97470223.50606      3570.132          39.850    23402413.055    97470226.51306      3570.132          39.750
R09  21470971.825   114653785.73808     -1499.731          50.650    21470969.872    89175150.69707     -1166.458          46.800    21470969.965    89175151.69407     -1166.458          47.050
R10  22623256.439   120594688.97707      1975.819          44.550
R16  23204172.650   123952498.98807     -4118.941          43.100    23204172.512    96407495.41506     -3203.620          36.550    23204171.675    96407489.39806     -3203.618          36.800
R17  22676110.108   121344460.34208     -3304.529          48.350    22676108.625    94379000.93306     -2570.190          41.000    22676108.678    94379002.94806     -2570.190          41.650
R18  19676586.464   105034975.92908     -1099.271          51.000    19676586.485    81693874.01908      -854.989          49.150    19676586.527    81693881.02608      -854.990          48.900
R19  20250161.552   108324728.88906      1999.351          38.950    20250159.085    84252567.67107      1555.052          46.050    20250159.422    84252568.67507      1555.052          47.050
E02  25139772.712   132110383.05548     -1890.927          50.350    25139775.889    98653858.43508     -1412.023          50.500    25139773.040   101227425.42808     -1448.831          51.050    25139774.252    99940643.67708     -1430.475          53.650
E04  26106325.694   137189675.60848       921.124          50.400    26106328.194   102446856.98608       687.974          48.100    26106325.520   105119371.75408       705.842          49.200    26106326.693   103783110.61108       696.917          51.550
E09  25128869.872   132053102.69347      2911.772          47.700    25128873.601    98611094.65307      2174.392          44.150    25128871.228   101183548.60507      2230.984          46.300    25128872.220    99897321.87107      2202.663          47.950
E11  22773368.192   119674867.99048     -1820.548          48.750    22773368.037    89367604.80708     -1359.510          48.350    22773365.444    91698923.71108     -1394.992          49.000    22773366.581    90533267.50408     -1377.267          51.500
E19  27869463.884   146455039.64646     -1778.073          40.150    27869465.484   109365786.20906     -1327.767          38.250    27869462.778   112218798.74606     -1362.286          37.650    27869463.803   110792291.72806     -1345.165          40.950
E25  27706790.762   145600164.18047     -3262.878          44.750    27706795.161   108727413.64507     -2436.706          42.650    27706792.191   111563769.48407     -2500.204          43.350    27706793.295   110145589.81007     -2468.483          45.850
E30  24899939.667   130850059.02348       829.720          49.600    24899942.558    97712713.03007       619.583          47.850    24899939.947   100261733.09408       635.747          49.700    24899941.036    98987224.31008       627.624          51.550
E36  23242659.525   122141022.24248       482.845          52.400    23242663.371    91209232.58408       360.590          53.350    23242660.854    93588587.63809       369.962          54.350    23242661.944    92398910.35409       365.282          56.650
C02  40766810.838   212283480.22516        -3.577          37.950    40766803.303   164151037.09306        -2.648          40.000
C05  39534718.006   205867663.00607         2.084          42.900    39534712.815   159189895.13507         1.588          42.300
C06  40229288.754   209484470.89406      1443.377          37.250    40229283.194   161986661.65806      1116.010          41.300
C09  40473105.027   210754080.45307      2007.646          43.000    40473101.505   162968406.71506      1552.257          40.300
C13  39804683.313   207273440.79306      -931.389          40.850    39804684.235   160276979.35706      -720.227          41.950
C16  40086338.618   208740087.91107      1576.980          42.700    40086338.064   161411078.15306      1219.463          40.350
C20  23609500.734   122940869.29108      2501.721          51.550
C24  27002051.398   140606764.31307      1725.638          42.850
C26  24983745.712   130096908.45307      -574.343          45.250
C29  21549386.794   112213350.01508       639.277          52.050
C30  23030652.202   119926639.51508     -2185.070          51.850
J01  44353913.605   233081391.51207      -206.684          42.450    44353914.632   181621865.40306      -161.052          38.600    44353915.461   174054290.60806      -154.374          41.350
S23  38618330.947   202940683.63508         2.340          48.750
S36  38572753.782   202701242.32107         1.928          47.100
> 2021 01 02 00 05  0.0000000  0 44
G07  25037113.256   131570918.02707     -1179.289          43.650    25037113.256   102522802.40806      -918.928          39.750    25037113.062   102522791.41306      -918.926          37.450
G08  22224069.695   116788284.99808      2728.240          49.600    22224073.338    91003870.78708      2125.901          49.000    22224072.668    91003863.77608      2125.900          49.350    22224070.484    87212033.02808      2037.319          52.150
G10  20949050.050   110088015.21708      1326.960          53.600    20949052.968    85782884.38308      1033.995          51.950    20949053.168    85782871.37508      1033.995          53.550    20949050.337    82208583.10509       990.919          54.900
G11  24599765.305   129272648.96106      3600.194          41.700                                                                    24599765.771   100731942.22906      2805.349          37.200
G13  25130111.656   132059644.87507     -1547.678          42.050                                                                    25130111.308   102903621.53905     -1205.981          33.700
G15  23735717.188   124732047.03507      -717.920          43.950    23735717.992    97193811.80106      -559.417          41.950    23735717.594    97193814.79307      -559.416          43.750
G16  22153622.120   116418075.04608     -2894.388          49.600                                                                    22153622.430    90715368.40807     -2255.367          44.050
G20  20960850.241   110150024.17308     -1227.146          49.050                                                                    20960850.415    85831198.03607      -956.216          46.650
G21  24195656.384   127149016.34007      2786.511          45.450                                                                    24195657.024    99077168.60806      2171.309          36.000
G23  21005051.244   110382296.84508      -977.563          48.000    21005052.411    86012197.06608      -761.738          51.250    21005052.269    86012190.05507      -761.738          47.650    21005054.865    82428364.96008      -729.999          53.850
G26  24242037.912   127392766.29507     -3685.506          42.400    24242041.795    99267100.34907     -2871.823          42.050    24242041.743    99267093.34207     -2871.823          42.250    24242039.702    95130965.03507     -2752.076          45.550
G27  20257832.233   106455650.93108       558.951          51.800    20257834.838    82952472.87508       435.546          53.350    20257834.459    82952469.87208       435.546          51.650    20257833.091    79496123.83509       417.401          56.000
G30  25352280.515   133227138.05706       139.790          41.700    25352282.906   103813362.69006       108.927          41.650    25352282.446   103813358.68506       108.928          38.700    25352281.386    99487794.93307       104.369          44.850
R02  21176303.628   113000831.22408     -1739.287          52.300    21176303.378    87889537.99207     -1352.777          45.550    21176303.392    87889545.00607     -1352.777          45.200
R03  20644283.162   110510469.69608      2350.718          50.950    20644281.107    85952582.65507      1828.337          47.550    20644281.236    85952597.67007      1828.336          47.800
R04  23376707.552   125181223.89107      4587.353          42.350    23376705.494    97363152.57706      3567.942          40.050    23376705.572    97363155.59206      3567.944          40.100
R09  21479466.960   114699149.13708     -1524.688          49.800    21479464.979    89210433.33907     -1185.868          46.750    21479465.068    89210434.33607     -1185.867          46.900
R10  22612203.471   120535769.85607      1951.887          44.550
R16  23227322.011   124076158.92506     -4125.068          41.750    23227321.879    96503675.37506     -3208.388          36.200    23227321.054    96503669.37206     -3208.386          36.950
R17  22694650.026   121443671.14107     -3309.557          47.000    22694648.521    94456164.87406     -2574.102          41.000    22694648.582    94456166.89407     -2574.103          42.650
R18  19682801.338   105068151.30408     -1112.649          50.550    19682801.361    81719677.07808      -865.393          49.050    19682801.401    81719684.08908      -865.393          48.900
R19  20238979.046   108264910.05006      1988.486          38.700    20238976.573    84206041.91307      1546.600          46.000    20238976.912    84206042.92007      1546.600          47.000
E02  25150601.546   132167288.91548     -1902.955          50.300    25150604.727    98696353.03908     -1421.079          50.600    25150601.882   101271028.59208     -1458.124          51.250    25150603.103    99983692.55708     -1439.570          53.600
E04  26101106.216   137162247.11148       907.144          50.400    26101108.680   102426374.70708       677.440          48.300    26101106.015   105098355.14608       695.080          49.550    26101107.188   103762361.17108       686.230          51.600
E09  25112259.429   131965814.22248      2907.316          48.000    25112263.158    98545911.70507      2171.012          44.550    25112260.771   101116665.22507      2227.758          46.400    25112261.776    99831288.70808      2199.398          48.100
E11  22783775.116   119729556.85948     -1825.331          48.950    22783775.005    89408443.88108     -1363.083          48.300    22783772.406    91740828.15808     -1398.648          49.150    22783773.541    90574639.26308     -1380.887          51.450
E19  27879646.878   146508551.57446     -1789.543          39.600    27879648.489   109405746.39806     -1336.290          37.900    27879645.776   112259801.39606     -1371.339          37.550    27879646.790   110832773.13606     -1353.730          40.600
E25  27725420.493   145698064.18947     -3263.868          45.250    27725424.920   108800520.80007     -2437.326          43.800    27725421.927   111638783.77807     -2500.852          43.850    27725423.039   110219650.52907     -2469.053          46.400
E30  24895244.390   130825385.15648       814.956          49.000    24895247.275    97694287.73108       608.664          48.000    24895244.686   100242827.14108       624.530          49.750    24895245.758    98968558.68308       616.540          51.600
E36  23239923.252   122126643.03548       475.589          51.950    23239927.095    91198494.87608       355.135          53.400    23239924.564    93577569.81309       364.418          54.550    23239925.661    92388032.58609       359.771          56.700
C02  40766831.987   212283590.38906        -3.856          37.600    40766824.487   164151122.29206        -3.019          39.950
C05  39534706.306   205867602.11007         1.857          42.600    39534701.113   159189848.05407         1.352          42.750
C06  40220985.337   209441232.91806      1439.306          37.100    40220979.791   161953227.30806      1112.849          41.700
C09  40461543.085   210693874.30207      2005.886          42.350    40461539.536   162921851.49506      1551.061          40.850
C13  39810047.278   207301372.39806      -930.981          40.300    39810048.230   160298577.83807      -719.811          42.000
C16  40077265.628   208692842.45007      1572.427          43.100    40077265.062   161374544.97906      1216.033          40.250
C20  23595121.828   122865994.98008      2489.815          51.800
C24  26992147.416   140555192.48407      1712.199          42.300
C26  24987100.349   130114378.90107      -590.507          45.550
C29  21545733.492   112194326.11408       628.806          51.750
C30  23043261.966   119992301.80508     -2192.626          51.550
J01  44355093.256   233087590.65807      -206.537          42.600    44355094.279   181626695.91306      -160.938          38.750    44355095.108   174058919.85206      -154.472          41.400
S23  38618316.949   202940609.67608         2.264          48.650
S36  38572743.141   202701186.23907         1.627          46.950
> 2021 01 02 00 05 30.0000000  0 44
G07  25043888.203   131606520.75707     -1194.023          42.800    25043888.215   102550544.81406      -930.409          40.350    25043888.025   102550533.82006      -930.409          39.600
G08  22208518.102   116706560.82707      2720.101          47.800    22208521.757    90940189.61108      2119.564          49.050    22208521.096    90940182.61407      2119.565          47.350    22208518.925    87151005.31208      2031.250          52.650
G10  20941525.201   110048472.06008      1309.324          53.900    20941528.081    85752071.55808      1020.253          52.100    20941528.282    85752058.55208      1020.253          53.950    20941525.450    82179054.20509       977.757          55.000
G11  24579213.834   129164650.65306      3599.703          41.600                                                                    24579214.391   100647787.70706      2804.963          36.900
G13  25138994.941   132106326.84406     -1564.503          41.500                                                                    25138994.584   102939997.10606     -1219.090          36.950
G15  23739872.389   124753882.89607      -737.981          44.250    23739873.189    97210826.77907      -575.050          42.050    23739872.793    97210829.76807      -575.050          43.850
G16  22170181.611   116505095.90208     -2906.772          49.750                                                                    22170181.939    90783176.87307     -2265.017          43.750
G20  20967904.680   110187095.50008     -1244.143          50.100                                                                    20967904.854    85860084.78007      -969.460          45.200
G21  24179761.084   127065486.00107      2782.166          45.850                                                                    24179761.635    99012080.09706      2167.924          37.850
G23  21010685.612   110411905.83908      -996.159          48.400    21010686.758    86035269.00608      -776.228          51.150    21010686.618    86035262.00207      -776.228          47.350    21010689.219    82450475.62208      -743.951          53.800
G26  24263083.420   127503361.52107     -3687.025          43.350    24263087.283    99353278.43707     -2873.007          42.900    24263087.233    99353271.43407     -2873.007          42.950    24263085.174    95213552.46107     -2753.538          45.250
G27  20254686.545   106439120.51508       543.256          52.600    20254689.162    82939592.03008       423.316          53.550    20254688.783    82939589.02708       423.316          52.800    20254687.422    79483779.73709       405.620          56.050
G30  25351532.385   133223206.82107       122.625          42.450    25351534.793   103810299.42006        95.552          41.400    25351534.341   103810295.43206        95.555          38.500    25351533.260    99484859.32807        91.491          44.950
R02  21186151.719   113053382.46708     -1764.020          52.350    21186151.471    87930411.17607     -1372.016          45.600    21186151.478    87930418.18407     -1372.016          44.950
R03  20631173.701   110440293.70508      2327.818          52.000    20631171.614    85898001.35407      1810.526          47.400    20631171.743    85898016.36907      1810.526          47.600
R04  23351016.620   125043650.39507      4584.387          44.550    23351014.576    97256151.01106      3565.634          39.650    23351014.653    97256154.02806      3565.634          39.800
R09  21488102.199   114745260.61208     -1549.230          49.850    21488100.161    89246297.82107     -1204.956          46.300    21488100.252    89246298.81807     -1204.956          46.950
R10  22601284.643   120477564.92607      1928.455          44.300
R16  23250505.241   124199999.65506     -4130.956          41.100    23250505.130    96599995.95706     -3212.966          36.300    23250504.309    96599989.92506     -3212.969          37.100
R17  22713217.150   121543027.54007     -3314.022          46.100    22713215.622    94533442.06106     -2577.571          40.700    22713215.690    94533444.09007     -2577.572          42.250
R18  19689090.869   105101725.17808     -1125.504          50.500    19689090.887    81745790.07808      -875.393          48.700    19689090.927    81745797.08208      -875.393          48.700
R19  20227856.026   108205409.43406      1978.399          38.200    20227853.552    84159763.66007      1538.756          45.750    20227853.891    84159764.67107      1538.756          46.650
E02  25161498.746   132224554.19348     -1914.571          50.850    25161501.911    98739116.09908     -1429.737          50.600    25161499.071   101314907.21608     -1467.062          50.850    25161500.303   100027013.40008     -1448.382          53.750
E04  26095966.423   137135237.42748       893.547          50.800    26095968.844   102406205.20408       667.296          48.600    26095966.190   105077659.48108       684.665          49.250    26095967.359   103741928.58708       675.989          51.900
E09  25095673.434   131878654.39548      2903.352          48.900    25095677.148    98480824.88607      2168.177          44.600    25095674.754   101049880.49307      2224.670          46.000    25095675.760    99765352.92808      2196.498          48.300
E11  22794208.512   119784385.01048     -1829.936          49.350    22794208.435    89449387.01108     -1366.492          48.300    22794205.834    91782839.37208     -1402.118          49.000    22794206.964    90616116.43608     -1384.327          51.700
E19  27889895.465   146562408.56146     -1800.549          39.750    27889897.055   109445964.37106     -1344.876          37.750    27889894.330   112301068.49806     -1379.823          36.950    27889895.341   110873515.67006     -1362.259          40.550
E25  27744054.174   145795985.16847     -3264.145          45.300    27744058.609   108873643.67207     -2437.471          43.400    27744055.606   111713814.20507     -2501.095          42.550    27744056.712   110293727.17907     -2469.265          46.000
E30  24890632.427   130801149.32048       800.765          50.400    24890635.293    97676189.59107       597.996          47.900    24890632.726   100224256.87408       613.551          49.300    24890633.789    98950224.47908       605.730          51.600
E36  23237228.157   122112480.34448       468.743          52.300    23237231.990    91187918.88608       349.995          53.400    23237229.452    93566717.92909       359.130          54.200    23237230.554    92377318.65109       354.561          56.800
C02  40766853.590   212283703.12306        -3.389          37.650    40766846.060   164151209.56806        -2.964          39.700
C05  39534695.367   205867545.30207         2.027          42.750    39534690.162   159189804.17007         1.638          42.200
C06  40212706.037   209398120.83306      1435.165          37.050    40212700.483   161919890.39306      1109.783          41.250
C09  40449991.005   210633719.81307      2004.552          42.750    40449987.433   162875336.28506      1549.989          40.800
C13  39815407.494   207329284.68106      -929.794          40.750    39815408.469   160320161.43106      -718.950          41.500
C16  40068218.175   208645730.06807      1568.494          44.100    40068217.591   161338114.73206      1212.967          40.150
C20  23580811.459   122791477.61908      2478.209          51.200
C24  26982321.027   140504025.26807      1699.243          42.550
C26  24990547.907   130132333.02307      -606.338          44.850
C29  21542140.330   112175615.47308       618.676          52.150
C30  23055915.038   120058189.66308     -2199.821          51.700
J01  44356273.476   233093792.84707      -206.567          42.950    44356274.477   181631528.78506      -160.961          39.250    44356275.311   174063551.39606      -154.244          41.500
S23  38618302.882   202940535.45808         2.664          48.750
S36  38572733.050   202701132.44507         2.119          46.900
> 2021 01 02 00 06  0.0000000  0 44
G07  25050747.945   131642568.78007     -1208.705          43.250    25050747.980   102578634.13106      -941.852          40.900    25050747.794   102578623.13106      -941.851          40.100
G08  22193014.863   116625090.73708      2711.544          49.250    22193018.535    90876706.40808      2112.890          48.900    22193017.878    90876699.40308      2112.890          49.100    22193015.712    87090167.22408      2024.872          52.200
G10  20934102.227   110009464.07408      1291.511          53.750    20934105.090    85721675.75308      1006.373          52.300    20934105.289    85721662.74508      1006.373          53.800    20934102.446    82149924.89209       964.426          54.900
G11  24558668.121   129056682.84206      3598.592          41.400                                                                    24558668.744   100563657.01506      2804.102          37.550
G13  25147977.063   132153528.28507     -1581.911          42.250                                                                    25147976.708   102976777.47305     -1232.655          33.650
G15  23744143.605   124776328.41507      -758.179          42.300    23744144.416    97228316.78307      -590.791          43.300    23744144.028    97228319.78307      -590.789          42.900
G16  22186814.136   116592500.52408     -2919.662          49.900                                                                    22186814.481    90851284.37007     -2275.062          43.950
G20  20975057.724   110224685.02208     -1261.479          50.350                                                                    20975057.902    85889375.31507      -982.970          45.200
G21  24163891.178   126982089.19407      2777.881          46.200                                                                    24163891.649    98947095.65406      2164.586          36.650
G23  21016427.913   110442081.90008     -1015.245          48.600    21016429.065    86058782.82008      -791.100          51.400    21016428.925    86058775.81807      -791.100          47.300    21016431.523    82473009.69808      -758.051          53.700
G26  24284141.235   127614021.09807     -3689.534          43.950    24284145.129    99439506.67007     -2874.960          42.450    24284145.080    99439499.66907     -2874.961          44.400    24284142.983    95296187.83907     -2755.180          45.050
G27  20251632.005   106423068.92008       527.269          52.400    20251634.648    82927084.29108       410.859          53.650    20251634.271    82927081.29008       410.858          52.400    20251632.905    79471793.15809       393.718          55.900
G30  25350885.036   133219805.03507       104.898          43.250    25350887.481   103807648.66706        81.737          40.950    25350887.027   103807644.66006        81.737          38.200    25350885.939    99482319.04407        78.177          45.650
R02  21196139.677   113106680.26208     -1788.736          52.300    21196139.415    87971865.04507     -1391.238          45.800    21196139.418    87971872.06807     -1391.237          45.400
R03  20618194.597   110370815.46308      2304.480          51.400    20618192.487    85843962.72807      1792.374          47.350    20618192.619    85843977.74207      1792.375          47.400
R04  23325342.727   124906168.00607      4581.293          44.650    23325340.710    97149220.27506      3563.228          40.300    23325340.783    97149223.28306      3563.228          41.000
R09  21496876.673   114792115.57908     -1574.148          49.350    21496874.577    89282740.56507     -1224.338          46.450    21496874.673    89282741.56207     -1224.339          46.850
R10  22590499.851   120420074.78907      1904.592          44.600
R16  23273721.103   124324014.98106     -4136.280          41.300    23273720.980    96696452.35505     -3217.105          35.150    23273720.176    96696446.34405     -3217.101          35.500
R17  22731810.984   121642526.77807     -3318.765          45.550    22731809.446    94610830.33306     -2581.260          40.150    22731809.515    94610832.35706     -2581.259          41.500
R18  19695454.565   105135695.00008     -1138.676          49.950    19695454.571    81772211.05008      -885.637          48.750    19695454.617    81772218.05808      -885.636          48.700
R19  20216792.424   108146226.57706      1967.677          38.150    20216789.954    84113732.53907      1530.415          45.850    20216790.292    84113733.54507      1530.415          46.750
E02  25172463.738   132282175.53248     -1926.361          50.950    25172466.892    98782145.00008     -1438.558          50.400    25172464.059   101359058.61208     -1476.115          50.850    25172465.300   100070603.54908     -1457.305          53.650
E04  26090906.149   137108645.50548       879.531          50.750    26090908.537   102386347.63408       656.797          48.600    26090905.893   105057283.87708       673.942          49.350    26090907.055   103721811.99508       665.429          51.900
E09  25079111.967   131791623.22948      2899.051          48.350    25079115.678    98415834.07907      2164.916          44.650    25079113.279   100983194.28207      2221.331          46.350    25079114.286    99699514.42508      2193.166          48.400
E11  22804667.978   119839350.01148     -1834.039          49.400    22804667.940    89490432.29607     -1369.613          47.950    22804665.340    91824955.41008     -1405.369          49.200    22804666.463    90657697.09608     -1387.485          51.600
E19  27900209.172   146616607.35146     -1812.134          38.700    27900210.776   109486437.45506     -1352.994          37.100    27900208.044   112342597.41006     -1388.355          36.750    27900209.054   110914516.67306     -1370.624          40.000
E25  27762691.211   145893923.46347     -3264.629          43.550    27762695.694   108946779.39007     -2437.957          42.450    27762692.670   111788857.80407     -2501.491          42.950    27762693.782   110367816.83807     -2469.680          45.800
E30  24886103.641   130777350.37348       786.254          50.000    24886106.493    97658417.63407       587.095          47.800    24886103.957   100206021.31408       602.359          49.500    24886105.015    98932220.71408       594.765          51.650
E36  23234573.933   122098532.27248       461.602          52.100    23234577.770    91177503.10808       344.668          53.250    23234575.229    93556030.43309       353.686          54.400    23234576.335    92366767.01409       349.182          56.750
C02  40766875.407   212283816.58206        -3.698          37.750    40766867.867   164151297.28506        -2.895          39.700
C05  39534684.876   205867490.74207         1.979          42.850    39534679.664   159189762.00007         1.492          42.250
C06  40204450.703   209355133.21606      1430.857          38.400    40204445.159   161886649.64206      1106.628          41.600
C09  40438448.629   210573615.58407      2002.670          42.750    40438445.063   162828859.86606      1548.645          40.650
C13  39820763.689   207357175.78206      -929.239          40.150    39820764.688   160341728.59006      -718.487          41.250
C16  40059196.004   208598749.28307      1564.019          44.150    40059195.409   161301786.23506      1209.180          40.550
C20  23566569.681   122717317.36008      2466.232          51.700
C24  26972572.331   140453262.34507      1685.435          42.100
C26  24994087.842   130150768.17107      -622.333          45.450
C29  21538607.098   112157216.92008       608.236          51.800
C30  23068611.011   120124300.72408     -2207.224          51.850
J01  44357453.912   233099996.07407      -206.675          42.850    44357454.893   181636362.46806      -161.046          39.400    44357455.730   174068183.69406      -154.476          41.250
S23  38618288.506   202940459.58208         2.695          48.800
S36  38572721.652   202701072.20207         2.176          47.150
> 2021 01 02 00 06 30.0000000  0 45
G07  25057692.837   131679064.47907     -1223.934          43.200    25057692.875   102607072.34906      -953.716          39.350    25057692.694   102607061.33106      -953.716          38.750
G08  22177561.032   116543880.36008      2702.716          48.550    22177564.701    90813425.60808      2106.013          49.300    22177564.046    90813418.61208      2106.013          48.750    22177561.889    87029523.14408      2018.275          52.400
G10  20926782.128   109970996.65708      1273.277          53.400    20926784.975    85691701.15408       992.164          52.350    20926785.171    85691688.14708       992.165          53.450    20926782.318    82121199.23809       950.864          54.750
G11  24538129.345   128948751.38706      3597.199          41.850                                                                    24538130.033   100479554.63206      2803.014          36.250
G13  25157058.607   132201252.01307     -1599.636          42.400                                                                    25157058.256   103013964.78005     -1246.466          32.900
G15  23748531.506   124799387.30107      -779.018          43.750    23748532.335    97246284.78407      -607.025          43.100    23748531.952    97246287.78307      -607.024          43.550
G16  22203519.895   116680290.00208     -2932.610          49.600                                                                    22203520.252    90919691.76607     -2285.150          44.550
G20  20982309.926   110262795.66808     -1279.051          50.150                                                                    20982310.102    85919071.93707      -996.661          45.600
G21  24148047.590   126898830.66907      2773.031          45.850                                                                    24148047.990    98882218.95806      2160.806          38.500
G23  21022278.708   110472828.12308     -1034.393          48.600    21022279.868    86082740.92408      -806.022          51.900    21022279.728    86082733.92507      -806.020          47.900    21022282.320    82495969.54908      -772.329          53.400
G26  24305211.628   127724746.83607     -3691.846          43.650    24305215.536    99525786.45207     -2876.764          42.650    24305215.489    99525779.45307     -2876.763          43.900    24305213.370    95378872.64607     -2756.959          44.000
G27  20248669.628   106407501.57908       510.825          52.550    20248672.293    82914953.89308       398.046          53.850    20248671.915    82914950.88908       398.046          52.650    20248670.542    79460168.19109       381.538          55.700
G30  25350339.269   133216937.04107        86.657          43.150    25350341.726   103805413.87506        67.526          40.250    25350341.273   103805409.86906        67.526          37.950    25350340.177    99480177.36207        64.823          46.300
R02  21206268.077   113160727.18008     -1813.955          51.850    21206267.819    88013901.52707     -1410.854          46.150    21206267.816    88013908.53707     -1410.854          46.300
R03  20605347.241   110302042.48608      2280.639          51.950    20605345.110    85790472.64507      1773.832          47.800    20605345.244    85790487.65308      1773.831          48.050
R04  23299687.422   124768785.20207      4577.829          44.050    23299685.435    97042366.99506      3560.533          40.100    23299685.510    97042369.99706      3560.534          39.750
R09  21505790.793   114839716.22708     -1599.095          49.350    21505788.663    89319763.26507     -1243.742          46.850    21505788.760    89319764.25407     -1243.742          47.350
R10  22579850.407   120363306.61307      1880.218          43.950
R16  23296969.637   124448204.70806     -4142.652          40.650    23296969.510    96793044.38806     -3222.064          36.550    23296968.725    96793038.37706     -3222.064          37.800
R17  22750432.232   121742172.59207     -3323.984          46.850    22750430.699    94688332.59406     -2585.321          41.000    22750430.764    94688334.59606     -2585.321          41.750
R18  19701893.286   105170065.28208     -1152.260          49.750    19701893.284    81798943.48508      -896.202          49.100    19701893.327    81798950.48908      -896.203          49.250
R19  20205789.239   108087367.01906      1956.567          38.600    20205786.770    84067952.89007      1521.773          46.050    20205787.107    84067953.89707      1521.772          47.200
E02  25183497.076   132340155.91848     -1938.694          50.950    25183500.223    98825441.99208     -1447.594          50.100    25183497.395   101403485.10008     -1485.395          50.800    25183498.646   100114465.28808     -1466.462          53.550
E04  26085926.389   137082476.67448       865.290          50.250    26085928.752   102366805.99908       646.139          48.450    26085926.119   105037232.45908       662.991          49.400    26085927.272   103702015.47308       654.534          51.950
E09  25062576.228   131704727.19648      2894.315          48.550    25062579.943    98350944.16007      2161.352          44.750    25062577.538   100916611.57907      2217.768          46.600    25062578.546    99633778.11308      2189.506          48.700
E11  22815154.315   119894456.09848     -1839.259          49.550    22815154.313    89531582.92507     -1373.331          47.550    22815151.718    91867179.53208     -1409.199          49.050    22815152.833    90699384.47208     -1391.245          51.300
E19  27910588.439   146671150.94246     -1824.094          38.700    27910590.048   109527168.08406     -1361.971          36.550    27910587.310   112384390.57506     -1397.394          36.750    27910588.319   110955778.56806     -1379.589          39.850
E25  27781332.000   145991881.66547     -3265.504          43.600    27781336.510   109019929.98307     -2438.496          43.350    27781333.482   111863916.70007     -2502.224          43.100    27781334.591   110441921.58207     -2470.324          46.250
E30  24881658.994   130753993.55948       771.202          49.700    24881661.824    97640975.84507       575.930          47.750    24881659.310   100188124.51208       590.996          49.250    24881660.376    98914551.42308       583.426          51.600
E36  23231961.391   122084803.30548       454.001          52.350    23231965.227    91167250.96308       339.065          53.050    23231962.694    93545510.83909       347.954          54.300    23231963.798    92356381.14609       343.488          56.700
C02  40766898.183   212283935.16406        -4.158          37.800    40766890.640   164151388.97406        -2.949          39.950
C05  39534675.701   205867442.89107         1.339          42.800    39534670.494   159189724.97807         1.172          42.300
C06  40196220.200   209312274.88106      1426.294          38.250    40196214.655   161853508.87506      1103.009          41.700
C09  40426916.860   210513566.57807      2000.578          42.700    40426913.289   162782426.15906      1547.073          40.800
C13  39826116.659   207385050.13706      -928.768          40.400    39826117.682   160363282.80206      -718.345          41.350
C16  40050200.050   208551904.92307      1559.224          44.600    40050199.454   161265563.19906      1205.723          40.000
C20  23552397.742   122643520.58408      2453.839          52.000
C24  26962902.495   140402909.54007      1671.719          42.850
C26  24997721.008   130169687.80307      -638.722          46.300
C29  21535134.749   112139135.55808       597.426          51.950
C30  23081350.628   120190638.92008     -2215.102          51.900
J01  44358635.384   233106204.63407      -207.037          43.100    44358636.345   181641200.30406      -161.327          39.950    44358637.181   174072819.95106      -154.658          41.150
S23  38618274.501   202940386.01608         2.468          48.550
S26  39642615.586   208323349.58916       -73.397          41.750
S36  38572712.102   202701022.30107         1.637          46.850
> 2021 01 02 00 07  0.0000000  0 45
G07  25064721.509   131716000.04007     -1239.046          43.150    25064721.560   102635853.22406      -965.492          39.300    25064721.389   102635842.23006      -965.492          39.700
G08  22162155.899   116462925.82908      2693.751          48.450    22162159.563    90750344.15508      2099.027          48.700    22162158.905    90750337.14908      2099.027          48.450    22162156.768    86969070.07208      2011.551          52.300
G10  20919563.875   109933064.52108      1255.008          53.400    20919566.703    85662143.67008       977.929          52.050    20919566.896    85662130.66508       977.929          53.550    20919564.035    82092873.32409       937.134          55.000
G11  24517596.501   128840850.96007      3595.837          43.100                                                                    24517597.242   100395476.40105      2801.952          35.500
G13  25166238.023   132249490.10607     -1616.807          42.950                                                                    25166237.661   103051552.91105     -1259.851          33.750
G15  23753034.845   124823052.79807      -799.587          44.050    23753035.700    97264725.47107      -623.054          42.650    23753035.319    97264728.46507      -623.053          43.750
G16  22220297.283   116768455.83108     -2945.607          50.050                                                                    22220297.652    90988392.41207     -2295.277          43.950
G20  20989659.884   110301419.94508     -1296.555          49.800                                                                    20989660.059    85949168.77207     -1010.302          45.250
G21  24132229.204   126815704.53607      2768.241          46.000                                                                    24132229.535    98817445.41306      2157.073          36.400
G23  21028236.565   110504136.93908     -1053.500          48.850    21028237.728    86107137.42508      -820.909          51.750    21028237.585    86107130.41507      -820.908          46.800    21028240.167    82519349.52408      -786.684          53.550
G26  24326292.955   127835529.97907     -3694.309          43.300    24326296.889    99612111.00907     -2878.682          42.300    24326296.839    99612104.00407     -2878.683          43.250    24326294.688    95461600.30907     -2758.663          45.550
G27  20245798.412   106392413.26708       494.528          52.600    20245801.086    82903196.76708       385.347          53.550    20245800.706    82903193.76208       385.347          52.550    20245799.324    79448900.94909       369.256          55.950
G30  25349893.843   133214596.34907        68.667          43.200    25349896.292   103803589.98106        53.506          40.350    25349895.843   103803585.98706        53.508          38.400    25349894.755    99478429.45107        51.344          46.750
R02  21216535.111   113215514.12308     -1839.006          51.450    21216534.844    88056513.64007     -1430.338          46.550    21216534.837    88056520.64307     -1430.338          46.700
R03  20592631.038   110233971.71008      2256.803          51.950    20592628.885    85737528.73407      1755.293          47.750    20592629.022    85737543.74708      1755.293          48.150
R04  23274050.321   124631499.92807      4573.997          44.500    23274048.352    96935589.57806      3557.555          40.700    23274048.426    96935592.58806      3557.555          40.600
R09  21514842.873   114888053.81108     -1623.894          49.200    21514840.721    89357359.15807     -1263.027          47.250    21514840.821    89357360.15907     -1263.027          47.300
R10  22569335.539   120307256.68107      1855.710          43.250
R16  23320248.814   124572558.03806     -4148.399          41.050    23320248.695    96889763.64705     -3226.531          35.850    23320247.925    96889757.62506     -3226.533          36.750
R17  22769079.498   121841957.88807     -3329.008          47.000    22769077.954    94765943.37506     -2589.229          40.350    22769078.018    94765945.38106     -2589.229          40.300
R18  19708405.821   105204829.59808     -1165.845          50.550    19708405.815    81825982.38808      -906.767          49.100    19708405.859    81825989.40008      -906.766          48.900
R19  20194845.607   108028826.04706      1945.495          38.350    20194843.147    84022421.03407      1513.162          46.300    20194843.482    84022422.03407      1513.161          47.150
E02  25194597.276   132398487.71148     -1950.641          51.100    25194600.408    98869001.41608     -1456.706          50.350    25194597.585   101448180.85608     -1494.700          51.050    25194598.849   100158592.88308     -1475.714          53.400
E04  26081026.112   137056725.55248       850.916          50.550    26081028.462   102347576.28708       635.465          48.900    26081025.836   105017501.10208       651.998          49.750    26081026.981   103682534.93908       643.719          52.000
E09  25046065.413   131617962.21448      2889.443          48.450    25046069.131    98286152.12307      2157.770          45.000    25046066.720   100850129.31607      2214.030          46.850    25046067.727    99568140.95808      2186.002          48.600
E11  22825666.218   119949696.58248     -1844.213          49.800    22825666.236    89572833.94807     -1377.229          47.650    22825663.652    91909506.65508     -1413.097          49.400    22825664.756    90741173.54508     -1395.127          51.250
E19  27921031.859   146726031.73846     -1835.189          39.100    27921033.470   109568150.53406     -1370.791          36.250    27921030.743   112426442.12406     -1406.467          37.350    27921031.742   110997295.57706     -1388.665          39.400
E25  27799975.049   146089851.76747     -3266.243          43.550    27799979.591   109093089.49507     -2439.135          43.200    27799976.546   111938984.72607     -2502.827          42.700    27799977.660   110516035.34607     -2470.899          45.700
E30  24877297.424   130731073.35048       756.377          49.350    24877300.235    97623860.10308       564.772          48.050    24877297.730   100170562.28208       579.420          49.650    24877298.809    98897212.43408       572.148          51.450
E36  23229389.374   122071287.26648       446.624          52.400    23229393.207    91157157.81308       333.448          53.300    23229390.689    93535154.39409       342.139          54.600    23229391.784    92346156.34409       337.802          56.650
C02  40766920.749   212284052.79406        -4.428          37.700    40766913.195   164151479.95406        -3.182          39.850
C05  39534666.589   205867395.52907         1.182          42.850    39534661.380   159189688.37607          .866          42.350
C06  40188013.420   209269540.04006      1422.116          38.900    40188007.871   161820463.60407      1099.563          42.200
C09  40415394.625   210453567.28807      1998.830          42.000    40415391.031   162736030.91906      1545.505          40.900
C13  39831465.209   207412901.51606      -928.396          40.400    39831466.262   160384819.24006      -718.034          41.750
C16  40041229.207   208505191.35907      1554.498          44.800    40041228.600   161229441.31906      1202.099          40.700
C20  23538294.871   122570083.15708      2441.417          51.850
C24  26953310.756   140352962.46906      1657.662          41.000
C26  25001446.169   130189084.99807      -655.028          46.600
C29  21531722.234   112121365.90908       586.650          51.850
C30  23094132.587   120257197.63908     -2222.794          52.050
J01  44359816.662   233112412.15207      -207.268          42.800    44359817.596   181646037.33206      -161.507          39.000    44359818.435   174077455.43406      -154.843          41.250
S23  38618259.746   202940308.83208         2.185          48.800
S26  39643034.084   208325547.47716       -73.328          41.900
S36  38572700.015   202700959.54807         1.653          47.150
> 2021 01 02 00 07 30.0000000  0 44
G07  25071834.454   131753378.75007     -1253.120          42.450    25071834.485   102664979.49606      -976.458          39.600    25071834.317   102664968.49706      -976.458          37.150
G08  22146800.739   116382233.94508      2685.646          49.700    22146804.400    90687467.36308      2092.709          48.550    22146803.740    90687460.36608      2092.710          49.600    22146801.623    86908813.16508      2005.391          52.900
G10  20912448.635   109895673.76308      1237.570          53.700    20912451.447    85633008.04308       964.341          51.850    20912451.639    85632995.04008       964.341          53.650    20912448.772    82064951.68909       924.076          55.250
G11  24497070.832   128732988.03007      3595.022          42.200                                                                    24497071.606   100311427.35305      2801.316          34.500
G13  25175515.974   132298246.06107     -1633.426          44.050                                                                    25175515.577   103089544.58605     -1272.799          34.200
G15  23757654.523   124847329.50907      -819.034          44.150    23757655.411    97283642.39407      -638.208          42.400    23757655.030    97283645.38307      -638.209          44.100
G16  22237146.888   116857001.13208     -2957.553          50.050                                                                    22237147.268    91057388.75007     -2304.587          44.150
G20  20997108.290   110340561.56308     -1313.098          49.950                                                                    20997108.466    85979668.72707     -1023.193          45.150
G21  24116437.165   126732716.84407      2764.175          45.350                                                                    24116437.430    98752779.74006      2153.905          36.700
G23  21034302.200   110536012.13208     -1071.687          48.700    21034303.356    86131975.24508      -835.079          51.350    21034303.213    86131968.23507      -835.080          47.000    21034305.784    82543152.44908      -800.383          53.700
G26  24347385.703   127946373.14607     -3695.580          43.700    24347389.652    99698482.29107     -2879.674          42.650    24347389.602    99698475.28507     -2879.673          44.000    24347387.438    95544372.79607     -2759.745          44.900
G27  20243019.528   106377810.11608       478.969          53.050    20243022.205    82891817.68108       373.222          53.500    20243021.825    82891814.67908       373.222          53.000    20243020.433    79437995.99809       357.569          56.100
G30  25349549.768   133212788.10307        51.748          44.300    25349552.213   103802180.94306        40.321          41.350    25349551.765   103802176.93606        40.322          38.600    25349550.710    99477079.13007        38.500          46.150
R02  21226941.390   113271043.95708     -1863.145          52.250    21226941.117    88099703.51007     -1449.111          46.150    21226941.112    88099710.51607     -1449.111          46.050
R03  20580047.550   110166611.38808      2233.732          51.600    20580045.388    85685137.39207      1737.349          47.700    20580045.525    85685152.41007      1737.350          47.950
R04  23248433.179   124494321.36007      4571.009          45.200    23248431.237    96828895.12206      3555.229          40.800    23248431.308    96828898.13406      3555.228          40.950
R09  21524033.421   114937130.66808     -1647.983          48.100    21524031.299    89395530.00207     -1281.765          46.850    21524031.392    89395530.99907     -1281.765          47.000
R10  22558956.869   120251933.07807      1832.272          43.900
R16  23343558.876   124697076.58306     -4153.054          41.050    23343558.746    96986611.43805     -3230.152          35.650    23343557.992    96986605.43306     -3230.152          36.400
R17  22787753.651   121941887.04707     -3333.070          47.150    22787752.094    94843666.04106     -2592.388          40.950    22787752.167    94843668.05207     -2592.388          42.250
R18  19714993.081   105239992.81208     -1178.432          50.400    19714993.070    81853331.54808      -916.558          49.000    19714993.113    81853338.55408      -916.558          48.750
R19  20183962.638   107970609.60006      1935.723          38.550    20183960.192    83977141.57007      1505.562          46.200    20183960.530    83977142.57607      1505.562          47.000
E02  25205765.052   132457174.64148     -1961.901          50.700    25205768.168    98912826.04908     -1465.128          50.450    25205765.347   101493148.74408     -1503.343          51.450    25205766.621   100202989.13808     -1484.210          53.600
E04  26076206.453   137031398.10948       837.351          50.700    26076208.796   102328662.95808       625.249          49.150    26076206.171   104998094.37808       641.564          49.900    26076207.310   103663374.91008       633.432          52.200
E09  25029580.875   131531335.42248      2885.466          48.700    25029584.588    98221463.31107      2154.620          45.200    25029582.171   100783752.95907      2210.892          47.300    25029583.176    99502608.37608      2182.827          48.850
E11  22836204.604   120005076.25448     -1847.788          49.750    22836204.618    89614188.90307     -1380.002          47.800    22836202.055    91951940.44608     -1416.089          49.550    22836203.142    90783067.91508     -1398.002          51.250
E19  27931540.150   146781253.51346     -1845.988          39.700    27931541.761   109609387.62506     -1378.767          36.300    27931539.065   112468754.97606     -1414.784          37.400    27931540.036   111039070.52806     -1396.700          39.350
E25  27818621.031   146187837.16947     -3266.213          44.100    27818625.626   109166260.40907     -2438.991          42.850    27818622.555   112014064.43507     -2502.703          44.150    27818623.692   110590160.66607     -2470.883          46.150
E30  24873020.062   130708595.67248       742.126          48.800    24873022.871    97607074.81908       554.094          48.300    24873020.364   100153339.11908       568.533          49.750    24873021.456    98880208.21108       561.324          51.750
E36  23226858.865   122057989.36048       439.823          52.700    23226862.696    91147227.56008       328.456          53.600    23226860.190    93524965.08909       336.978          54.750    23226861.277    92336096.56609       332.739          56.800
C02  40766944.034   212284174.58116        -3.921          38.100    40766936.455   164151574.15306        -3.008          40.150
C05  39534658.595   205867353.88307         1.661          43.050    39534653.391   159189656.16507         1.239          42.600
C06  40179831.437   209226934.22106      1418.113          39.850    40179825.888   161787518.08107      1096.758          42.500
C09  40403883.043   210393623.31206      1997.284          41.750    40403879.434   162689678.41606      1544.517          41.000
C13  39836810.331   207440735.07806      -927.234          41.000    39836811.412   160406341.90406      -717.122          41.500
C16  40032284.534   208458614.09607      1550.596          44.950    40032283.911   161193424.84806      1198.882          41.100
C20  23524262.398   122497012.17608      2429.826          52.100
C24  26943798.242   140303427.65006      1644.579          41.950
C26  25005264.040   130208963.90007      -670.410          47.300
C29  21528370.699   112103913.80508       576.670          52.000
C30  23106957.787   120323981.52908     -2229.616          51.900
J01  44360998.696   233118623.70507      -206.804          42.800    44360999.589   181650877.50106      -161.146          38.750    44361000.437   174082093.95406      -154.653          41.350
S23  38618245.164   202940232.59708         2.629          48.800
S36  38572688.280   202700898.01807         2.353          47.200
> 2021 01 02 00 08  0.0000000  0 44
G07  25079031.009   131791196.91807     -1267.978          42.350    25079031.022   102694448.21506      -988.033          38.700    25079030.846   102694437.19006      -988.036          38.000
G08  22131495.603   116301804.97407      2676.392          47.650    22131499.257    90624795.44808      2085.502          48.850    22131498.589    90624788.44707      2085.502          47.700    22131496.496    86848752.56008      1998.678          52.450
G10  20905436.201   109858823.22508      1219.263          53.200    20905439.006    85604293.35208       950.075          52.350    20905439.196    85604280.34908       950.076          53.200    20905436.327    82037433.44609       910.517          55.150
G11  24476552.124   128625161.93307      3593.516          42.900                                                                    24476552.920   100227407.07606      2800.141          36.100
G13  25184891.806   132347516.18107     -1650.814          43.050                                                                    25184891.379   103127936.86505     -1286.348          32.550
G15  23762390.015   124872214.94007      -839.590          45.300    23762390.904    97303033.68007      -654.224          42.800    23762390.525    97303036.67707      -654.224          45.000
G16  22254067.742   116945920.85808     -2970.228          49.650                                                                    22254068.134    91126676.84707     -2314.464          44.650
G20  21004654.446   110380216.91308     -1330.386          50.300                                                                    21004654.616    86010569.01007     -1036.663          45.650
G21  24100671.155   126649866.02107      2759.275          45.850                                                                    24100671.352    98688220.72806      2150.085          38.550
G23  21040474.968   110568450.23608     -1090.655          48.400    21040476.122    86157251.68908      -849.859          50.950    21040475.979    86157244.68207      -849.860          47.600    21040478.538    82567375.70908      -814.476          53.700
G26  24368489.001   128057271.71907     -3697.647          43.600    24368492.965    99784896.73806     -2881.284          41.900    24368492.923    99784889.74507     -2881.284          43.200    24368490.735    95627186.64807     -2761.141          44.900
G27  20240332.762   106363690.98608       462.531          52.950    20240335.442    82880815.76008       360.414          53.650    20240335.062    82880812.75708       360.414          53.000    20240333.658    79427452.48309       345.384          56.000
G30  25349306.599   133211510.08507        33.475          43.750    25349309.028   103801185.07306        26.084          41.150    25349308.583   103801181.07106        26.084          36.950    25349307.551    99476124.73207        25.154          45.000
R02  21237485.971   113327311.89008     -1887.915          50.900    21237485.688    88143467.47207     -1468.379          46.000    21237485.688    88143474.48807     -1468.378          45.750
R03  20567596.980   110099962.60408      2209.722          51.050    20567594.822    85633299.47907      1718.677          47.400    20567594.957    85633314.48707      1718.676          47.800
R04  23222836.256   124357251.28007      4567.058          44.950    23222834.331    96722285.10606      3552.156          39.950    23222834.403    96722288.11406      3552.156          40.200
R09  21533361.495   114986942.20808     -1672.577          48.450    21533359.412    89434272.30907     -1300.894          46.350    21533359.500    89434273.30807     -1300.893          46.600
R10  22548714.402   120197335.56107      1807.846          43.500
R16  23366898.658   124821753.66706     -4158.318          40.700    23366898.533    97083582.50705     -3234.248          35.650    23366897.782    97083576.49805     -3234.248          35.650
R17  22806454.211   122041957.48007     -3338.048          46.700    22806452.647    94921498.59006     -2596.258          39.800    22806452.719    94921500.60406     -2596.260          41.300
R18  19721654.600   105275552.40808     -1192.015          50.400    19721654.580    81880989.00408      -927.123          48.900    19721654.627    81880996.01008      -927.122          49.100
R19  20173140.286   107912717.42806      1924.248          38.450    20173137.853    83932114.34007      1496.638          45.950    20173138.191    83932115.34407      1496.637          47.000
E02  25216999.735   132516213.13748     -1973.838          51.050    25217002.842    98956913.20508     -1473.952          50.250    25217000.027   101538386.00608     -1512.449          51.200    25217001.305   100247651.35008     -1493.180          53.650
E04  26071467.176   137006493.10848       823.091          50.650    26071469.518   102310065.09508       614.611          49.050    26071466.885   104979011.35108       630.655          49.800    26071468.024   103644534.46808       622.632          52.250
E09  25013122.637   131444846.77948      2880.626          48.850    25013126.352    98156877.63707      2151.084          45.000    25013123.937   100717482.45007      2207.223          47.500    25013124.939    99437180.29108      2179.118          49.050
E11  22846769.066   120060592.76748     -1852.874          49.200    22846769.088    89655646.01607     -1383.588          47.500    22846766.544    91994479.04208     -1419.697          49.400    22846767.616    90825065.77308     -1401.683          51.250
E19  27942112.710   146836812.85546     -1857.643          40.150    27942114.336   109650876.74605     -1387.269          35.900    27942111.661   112511326.40506     -1423.391          37.350    27942112.616   111081100.81106     -1405.271          39.650
E25  27837269.181   146285834.01247     -3266.908          44.850    27837273.814   109239439.85907     -2439.451          42.350    27837270.734   112089152.92607     -2503.065          44.050    27837271.878   110664294.63107     -2471.171          45.950
E30  24868826.635   130686559.15648       727.113          48.450    24868829.462    97590618.97208       542.995          48.050    24868826.960   100136453.99608       557.128          49.650    24868828.056    98863537.72808       550.059          51.800
E36  23224369.484   122044907.54848       432.405          52.350    23224373.314    91137458.66808       322.945          53.400    23224370.814    93514941.35909       331.330          54.600    23224371.898    92326200.25709       327.132          56.850
C02  40766967.954   212284298.59916        -4.330          37.900    40766960.299   164151670.02706        -3.131          40.150
C05  39534651.300   205867315.92207          .966          43.050    39534646.097   159189626.81607          .751          42.700
C06  40171673.887   209184455.74406      1414.075          39.950    40171668.327   161754671.05907      1093.159          42.050
C09  40392381.806   210333733.29007      1995.365          42.000    40392378.187   162643367.65106      1543.122          41.050
C13  39842151.684   207468548.92906      -927.065          40.900    39842152.795   160427849.30506      -716.807          41.550
C16  40023365.766   208412171.60407      1545.829          45.450    40023365.137   161157512.56106      1195.391          40.800
C20  23510300.307   122424307.64408      2417.287          52.100
C24  26934364.840   140254304.63306      1630.333          41.500
C26  25009173.851   130229321.57407      -686.479          45.050
C29  21525079.906   112086777.90108       565.842          52.150
C30  23119825.734   120390988.08108     -2237.405          52.100
J01  44362181.113   233124837.10307      -207.261          42.550    44362181.982   181655719.10606      -161.502          38.900    44362182.829   174086733.80506      -154.671          41.100
S23  38618230.614   202940156.20508         2.449          48.750
S36  38572676.997   202700837.69207         2.190          47.050
> 2021 01 02 00 08 30.0000000  0 44
G07  25086310.761   131829452.13307     -1282.731          44.150    25086310.771   102724257.43806      -999.531          38.900    25086310.590   102724246.41506      -999.531          37.800
G08  22116240.737   116221640.11708      2667.609          48.950    22116244.400    90562329.31108      2078.653          48.450    22116243.725    90562322.31908      2078.655          48.850    22116241.661    86788889.19808      1992.000          52.600
G10  20898526.586   109822513.06908      1201.261          53.050    20898529.386    85575999.74708       936.048          52.150    20898529.573    85575986.74008       936.048          53.000    20898526.705    82010318.74809       896.927          55.000
G11  24456040.626   128517373.53206      3592.201          41.950                                                                    24456041.420   100143416.14906      2799.119          36.950
G13  25194364.996   132397298.01906     -1668.120          41.700                                                                    25194364.527   103166727.91405     -1299.832          34.500
G15  23767241.052   124897707.41407      -859.943          45.450    23767241.936    97322897.97007      -670.085          42.750    23767241.556    97322900.97007      -670.084          45.400
G16  22271059.212   117035211.63308     -2982.669          49.550                                                                    22271059.620    91196254.06107     -2324.158          44.100
G20  21012297.891   110420383.47508     -1347.553          50.200                                                                    21012298.051    86041867.63307     -1050.040          45.450
G21  24084931.131   126567151.78107      2754.652          45.700                                                                    24084931.272    98623768.14406      2146.484          38.300
G23  21046754.448   110601449.16208     -1109.472          48.200    21046755.603    86182965.14408      -864.523          50.750    21046755.459    86182958.13707      -864.523          47.150    21046758.011    82592017.77108      -828.521          53.600
G26  24389602.230   128168222.51507     -3699.317          43.650    24389606.208    99871351.90207     -2882.585          42.400    24389606.164    99871344.89607     -2882.585          42.950    24389603.971    95710039.50807     -2762.551          44.100
G27  20237738.154   106350056.15708       446.216          52.550    20237740.830    82870191.21008       347.700          53.550    20237740.451    82870188.20708       347.700          52.400    20237739.040    79417270.62609       333.202          55.950
G30  25349164.186   133210761.39307        15.974          42.000    25349166.602   103800601.62506        12.444          40.500    25349166.161   103800597.62306        12.444          37.550    25349165.165    99475565.64207        11.867          44.850
R02  21248168.123   113384313.92708     -1912.445          51.700    21248167.838    88187802.40107     -1487.456          46.100    21248167.842    88187809.42107     -1487.455          45.800
R03  20555279.792   110034027.82908      2185.819          51.650    20555277.645    85582016.87407      1700.082          47.600    20555277.782    85582031.89308      1700.082          48.050
R04  23197260.302   124220293.28407      4563.143          45.000    23197258.397    96615762.22606      3549.113          40.500    23197258.471    96615765.22806      3549.112          40.250
R09  21542826.525   115037485.06708     -1696.978          48.950    21542824.486    89473583.40907     -1319.872          46.700    21542824.572    89473584.40607     -1319.873          47.200
R10  22538608.503   120143466.32607      1783.317          43.350
R16  23390267.127   124946583.98307     -4163.785          42.100    23390267.003    97180672.76806     -3238.499          36.050    23390266.244    97180666.74906     -3238.499          36.750
R17  22825180.860   122142167.49508     -3342.781          48.200    22825179.293    94999439.73006     -2599.939          40.350    22825179.355    94999441.71806     -2599.943          41.350
R18  19728390.229   105311507.55908     -1205.293          50.550    19728390.213    81908954.09708      -937.451          48.950    19728390.261    81908961.10708      -937.449          49.050
R19  20162378.549   107855149.40106      1913.344          38.550    20162376.128    83887339.20807      1488.157          46.050    20162376.466    83887340.20907      1488.156          47.250
E02  25228300.898   132575601.09748     -1985.555          50.900    25228303.991    99001261.35808     -1482.729          50.150    25228301.180   101583891.06608     -1521.430          51.000    25228302.459   100292577.95808     -1502.109          53.500
E04  26066808.316   136982010.70748       808.999          50.500    26066810.659   102291782.81008       603.972          49.000    26066808.017   104960252.13408       619.763          49.600    26066809.156   103626013.71508       611.861          52.200
E09  24996690.936   131358497.64648      2875.842          49.050    24996694.643    98092396.15907      2147.439          45.050    24996692.239   100651318.84807      2203.539          47.050    24996693.235    99371857.74608      2175.485          48.950
E11  22857359.343   120116245.00748     -1857.705          49.050    22857359.372    89697204.49907     -1387.196          47.300    22857356.847    92037121.64908     -1423.400          48.950    22857357.904    90867166.32008     -1405.342          51.050
E19  27952749.098   146892707.59546     -1868.912          40.350    27952750.717   109692616.34305     -1395.670          35.600    27952748.081   112554154.89906     -1432.208          37.050    27952749.012   111123384.85506     -1413.815          39.400
E25  27855919.041   146383839.81247     -3267.025          44.800    27855923.711   109312626.02606     -2439.796          40.300    27855920.623   112164248.27807     -2503.494          42.100    27855921.769   110738435.39507     -2471.705          44.250
E30  24864717.158   130664963.86748       712.371          49.300    24864720.017    97574492.61807       531.891          47.950    24864717.519   100119906.95508       545.759          49.150    24864718.618    98847201.03308       538.777          51.450
E36  23221921.098   122032041.21948       425.194          52.400    23221924.923    91127850.70708       317.449          53.300    23221922.424    93505082.75109       325.733          54.350    23221923.506    92316466.97009       321.614          56.750
C02  40766992.055   212284424.13816        -4.466          37.800    40766984.368   164151767.12806        -3.301          39.900
C05  39534644.593   205867281.01207          .914          43.150    39534639.389   159189599.82707          .611          42.300
C06  40163540.762   209142104.40206      1409.753          40.850    40163535.199   161721922.32707      1089.805          42.250
C09  40380890.874   210273897.02306      1993.347          41.950    40380887.249   162597098.47106      1541.494          40.900
C13  39847489.099   207496342.34106      -926.408          41.200    39847490.233   160449340.92406      -716.131          41.250
C16  40014472.820   208365863.61907      1541.211          45.750    40014472.181   161121704.29706      1191.749          40.800
C20  23496408.782   122351970.74708      2405.001          52.050
C24  26925010.543   140205594.24507      1616.677          42.100
C26  25013174.968   130250156.55007      -702.495          45.000
C29  21521849.880   112069958.22308       555.200          52.250
C30  23132736.207   120458216.14808     -2244.740          51.600
J01  44363363.688   233131051.51307      -207.384          42.750    44363364.517   181660561.50606      -161.598          38.800    44363365.366   174091374.46306      -154.870          40.900
S23  38618215.942   202940078.81908         2.489          48.800
S36  38572665.733   202700777.32807         1.727          47.050
> 2021 01 02 00 09  0.0000000  0 44
G07  25093673.969   131868145.87407     -1297.045          43.600    25093673.964   102754408.36906     -1010.683          39.800    25093673.783   102754397.35806     -1010.683          36.900
G08  22101037.146   116141744.98508      2658.532          49.100    22101040.805    90500073.41208      2071.583          49.150    22101040.116    90500066.40408      2071.584          49.400    22101038.078    86729227.27608      1985.258          52.350
G10  20891720.671   109786747.89408      1183.086          53.650    20891723.472    85548130.80408       921.886          52.350    20891723.659    85548117.79808       921.886          53.600    20891720.791    81983611.01709       883.389          55.050
G11  24435536.972   128409626.57107      3590.890          43.050                                                                    24435537.751   100059457.56806      2798.097          36.350
G13  25203935.879   132447593.38706     -1685.151          41.850                                                                    25203935.370   103205919.15105     -1313.101          33.800
G15  23772208.177   124923809.77907      -880.304          45.400    23772209.054    97343237.48207      -685.952          42.900    23772208.670    97343240.47607      -685.952          45.450
G16  22288121.517   117124874.70708     -2994.979          49.700                                                                    22288121.939    91266121.39007     -2333.749          43.650
G20  21020039.079   110461063.62308     -1364.575          50.600                                                                    21020039.230    86073566.44307     -1063.305          45.250
G21  24069217.955   126484578.53507      2750.023          45.200                                                                    24069218.035    98559425.39706      2142.878          37.350
G23  21053141.074   110635011.16408     -1128.113          48.800    21053142.227    86209117.36008      -879.050          51.100    21053142.082    86209110.35707      -879.050          47.150    21053144.633    82617080.31708      -842.520          53.600
G26  24410725.609   128279226.64507     -3701.265          44.200    24410729.602    99957848.63306     -2884.101          41.300    24410729.558    99957841.63407     -2884.100          44.150    24410727.356    95792932.19707     -2763.828          44.400
G27  20235236.584   106336910.27308       429.910          52.750    20235239.252    82859947.66608       334.995          53.500    20235238.874    82859944.66308       334.995          52.700    20235237.461    79407453.90109       321.002          55.950
G30  25349123.119   133210545.54107        -1.895          43.300    25349125.511   103800433.43106        -1.477          40.100    25349125.077   103800429.42906        -1.478          36.550    25349124.091    99475404.45907        -1.488          43.550
R02  21258988.259   113442052.12208     -1936.897          50.700    21258987.989    88232709.87307     -1506.477          46.250    21258987.990    88232716.88407     -1506.476          46.300
R03  20543097.199   109968813.47208      2161.688          52.100    20543095.072    85531294.58907      1681.311          47.950    20543095.207    85531309.60308      1681.311          48.200
R04  23171706.705   124083455.02007      4559.265          46.200    23171704.801    96509332.46906      3546.096          41.050    23171704.884    96509335.48306      3546.096          40.600
R09  21552428.720   115088760.32808     -1721.385          49.550    21552426.717    89513464.15307     -1338.857          47.350    21552426.803    89513465.14908     -1338.857          48.200
R10  22528640.292   120090330.97407      1758.904          43.650
R16  23413664.241   125071567.35406     -4168.732          41.700    23413664.106    97277882.05205     -3242.346          35.250    23413663.341    97277876.05906     -3242.344          36.600
R17  22843934.118   122242519.99307     -3347.419          47.850    22843932.535    95077491.67406     -2603.548          40.350    22843932.600    95077493.67807     -2603.551          42.850
R18  19735200.619   105347861.85408     -1218.595          50.500    19735200.609    81937229.65008      -947.797          49.100    19735200.654    81937236.66008      -947.796          49.100
R19  20151678.373   107797910.67706      1902.476          38.450    20151675.954    83842820.20107      1479.704          46.250    20151676.293    83842821.20707      1479.705          47.300
E02  25239668.983   132635340.69348     -1997.139          50.950    25239672.073    99045872.08008     -1491.512          50.100    25239669.266   101629665.54408     -1530.431          51.100    25239670.541   100337770.55608     -1510.979          53.700
E04  26062230.739   136957955.40348       794.660          51.050    26062233.086   102273819.44608       593.413          48.850    26062230.438   104941820.17108       608.829          49.550    26062231.575   103607816.05108       601.108          52.300
E09  24980286.873   131272293.72348      2870.863          48.850    24980290.574    98028023.10507      2143.901          45.350    24980288.179   100585266.49207      2199.760          47.150    24980289.175    99306645.03908      2171.874          49.300
E11  22867976.078   120172036.33148     -1861.834          49.100    22867976.107    89738866.83707     -1390.439          47.400    22867973.603    92079870.83808     -1426.759          48.900    22867974.641    90909372.08208     -1408.569          51.150
E19  27963449.776   146948940.05546     -1880.231          40.350    27963451.364   109734608.12305     -1403.829          35.450    27963448.769   112597242.11406     -1440.670          37.600    27963449.688   111165924.36506     -1422.346          39.750
E25  27874571.009   146481856.47647     -3267.477          44.700    27874575.723   109385820.27907     -2439.941          42.550    27874572.632   112239351.90307     -2503.601          42.800    27874573.772   110812584.33807     -2471.778          45.450
E30  24860692.490   130643814.21948       697.494          50.000    24860695.375    97558699.04307       520.811          47.850    24860692.866   100103701.36908       534.344          49.100    24860693.984    98831201.45308       527.563          51.650
E36  23219514.443   122019394.10648       417.745          52.600    23219518.269    91118406.42508       311.952          53.150    23219515.767    93495392.10109       320.104          54.400    23219516.852    92306899.50609       316.040          56.850
C02  40767017.136   212284554.89516        -4.361          37.850    40767009.498   164151868.23406        -3.396          39.800
C05  39534639.199   205867252.86507          .579          42.700    39534633.997   159189578.04807          .559          42.250
C06  40155432.845   209099884.26306      1405.164          40.850    40155427.287   161689275.03507      1086.469          42.250
C09  40369411.114   210214118.88406      1991.620          41.800    40369407.472   162550874.23206      1539.929          41.050
C13  39852823.259   207524118.92206      -925.245          41.150    39852824.405   160470819.56406      -715.893          41.050
C16  40005606.501   208319694.31507      1536.690          45.200    40005605.856   161086003.27606      1188.120          41.000
C20  23482588.932   122280007.22008      2392.492          51.900
C24  26915736.482   140157301.71307      1602.635          43.500
C26  25017267.950   130271471.48007      -718.536          44.650
C29  21518681.467   112053459.16308       544.536          52.550
C30  23145689.805   120525668.92808     -2252.255          51.400
J01  44364547.167   233137270.57407      -207.429          42.550    44364547.970   181665407.53306      -161.632          38.500    44364548.820   174096018.55806      -154.915          40.800
S23  38618201.883   202940004.38608         2.351          48.650
S36  38572655.805   202700724.31007         1.621          47.050
